Elapsed,Time,Pitch,Roll,Yaw,Latitude,Longitude,Altitude,Velocity,RTK Status,Latitude RTK,Longitude RTK,Altitude RTK,ALT:Altitude,ALT:Filtered Altitude,ECHO:Depth,ECHO:True Depth,ECHO:Temperature,ECHO:Pitch,ECHO:Roll
51756,12:56:49.211,4.51,8.58,-122.14,56.12778194,9.95481105,3.12,0.44,ON,56.12775561,9.95478969,61.63,2.81,2.81,0.000,0.000,0.25,0.7,0.6
51849,12:56:49.304,4.25,8.99,-121.88,56.12778238,9.95481029,3.41,0.55,ON,56.12775589,9.95478843,61.89,2.90,2.90,0.000,0.000,0.25,0.7,0.6
51951,12:56:49.406,4.50,9.51,-121.58,56.12778275,9.95480943,3.41,0.66,ON,56.12775589,9.95478843,61.89,3.06,3.06,0.000,0.000,0.25,0.7,0.6
52049,12:56:49.504,4.86,9.96,-121.25,56.12778315,9.95480851,3.66,0.76,ON,56.12775650,9.95478666,62.12,3.19,3.19,0.000,0.000,0.25,0.7,0.6
52148,12:56:49.603,4.75,10.43,-121.02,56.12778364,9.95480746,3.66,0.87,ON,56.12775650,9.95478666,62.12,3.31,3.31,0.000,0.000,0.25,0.7,0.6
52248,12:56:49.704,4.82,10.74,-120.62,56.12778422,9.95480642,3.93,0.98,ON,56.12775742,9.95478466,62.34,3.45,3.45,0.000,0.000,0.25,0.7,0.6
52348,12:56:49.803,4.72,10.68,-120.20,56.12778492,9.95480519,3.93,1.08,ON,56.12775742,9.95478466,62.34,3.54,3.54,0.000,0.000,0.25,0.7,0.6
52450,12:56:49.905,4.24,10.44,-119.76,56.12778569,9.95480403,4.15,1.17,ON,56.12775875,9.95478234,62.54,3.72,3.72,0.000,0.000,0.25,0.7,0.6
52548,12:56:50.003,4.08,10.36,-119.08,56.12778659,9.95480285,4.15,1.25,ON,56.12775875,9.95478234,62.54,3.81,3.81,0.000,0.000,0.25,0.7,0.6
52649,12:56:50.104,3.74,10.55,-118.35,56.12778746,9.95480157,4.34,1.33,ON,56.12776044,9.95477997,62.73,3.88,3.88,0.000,0.000,0.25,0.7,0.6
52748,12:56:50.203,3.22,10.82,-117.60,56.12778846,9.95480020,4.34,1.41,ON,56.12776044,9.95477997,62.73,3.99,3.99,0.000,0.000,0.25,0.7,0.6
52849,12:56:50.304,3.07,11.17,-116.53,56.12778949,9.95479890,4.51,1.50,ON,56.12776242,9.95477747,62.90,4.09,4.09,0.000,0.000,0.25,0.7,0.6
52949,12:56:50.404,2.52,11.66,-115.08,56.12779068,9.95479753,4.51,1.59,ON,56.12776242,9.95477747,62.90,4.28,4.28,0.000,0.000,0.25,0.7,0.6
53049,12:56:50.504,1.84,12.10,-113.27,56.12779188,9.95479622,4.66,1.70,ON,56.12776466,9.95477493,63.01,4.36,4.36,0.000,0.000,0.25,0.7,0.6
53148,12:56:50.603,1.62,12.00,-111.09,56.12779311,9.95479505,4.66,1.82,ON,56.12776466,9.95477493,63.01,4.42,4.42,0.000,0.000,0.25,0.7,0.6
53249,12:56:50.704,1.67,11.31,-108.78,56.12779447,9.95479365,4.77,1.93,ON,56.12776732,9.95477217,63.14,4.49,4.49,0.000,0.000,0.25,0.7,0.6
53348,12:56:50.803,1.65,10.66,-106.48,56.12779606,9.95479209,4.77,2.04,ON,56.12776732,9.95477217,63.14,4.58,4.58,0.000,0.000,0.25,0.7,0.6
53450,12:56:50.905,1.44,10.20,-104.33,56.12779766,9.95479057,4.88,2.13,ON,56.12777036,9.95476938,63.27,4.61,4.61,0.000,0.000,0.25,0.7,0.6
53548,12:56:51.003,1.13,9.63,-102.19,56.12779958,9.95478896,4.88,2.21,ON,56.12777036,9.95476938,63.27,4.66,4.66,0.000,0.000,0.25,0.7,0.6
53649,12:56:51.104,0.71,9.18,-100.08,56.12780132,9.95478740,4.95,2.28,ON,56.12777369,9.95476634,63.40,4.73,4.73,0.000,0.000,0.25,0.7,0.6
53749,12:56:51.204,0.19,9.37,-97.95,56.12780317,9.95478572,4.95,2.34,ON,56.12777369,9.95476634,63.40,4.80,4.80,0.000,0.000,0.25,0.7,0.6
53848,12:56:51.303,-0.06,10.02,-95.86,56.12780496,9.95478413,5.06,2.39,ON,56.12777723,9.95476324,63.52,4.94,4.94,0.000,0.000,0.25,0.7,0.6
53949,12:56:51.404,-0.97,10.36,-93.88,56.12780667,9.95478240,5.06,2.48,ON,56.12777723,9.95476324,63.52,5.02,5.02,0.000,0.000,0.25,0.7,0.6
54049,12:56:51.504,-2.05,10.57,-91.87,56.12780856,9.95478071,5.14,2.57,ON,56.12778110,9.95475998,63.63,5.08,5.08,0.000,0.000,0.25,0.7,0.6
54148,12:56:51.603,-3.28,10.66,-89.88,56.12781067,9.95477884,5.14,2.68,ON,56.12778110,9.95475998,63.63,5.15,5.15,0.000,0.000,0.25,0.7,0.6
54249,12:56:51.704,-4.39,10.78,-87.86,56.12781273,9.95477693,5.26,2.80,ON,56.12778519,9.95475641,63.75,5.19,5.19,0.000,0.000,0.25,0.7,0.6
54348,12:56:51.803,-4.78,10.57,-85.78,56.12781484,9.95477470,5.26,2.92,ON,56.12778519,9.95475641,63.75,5.26,5.26,0.000,0.000,0.25,0.7,0.6
54450,12:56:51.905,-4.65,10.29,-83.66,56.12781704,9.95477240,5.36,3.05,ON,56.12778961,9.95475224,63.87,5.32,5.32,0.000,0.000,0.25,0.7,0.6
54548,12:56:52.003,-4.65,10.19,-81.55,56.12781945,9.95476976,5.36,3.17,ON,56.12778961,9.95475224,63.87,5.39,5.39,0.000,0.000,0.25,0.7,0.6
54649,12:56:52.104,-5.07,10.18,-79.52,56.12782180,9.95476720,5.47,3.28,ON,56.12779437,9.95474758,63.99,5.44,5.44,0.000,0.000,0.25,0.7,0.6
54748,12:56:52.204,-5.37,9.88,-77.46,56.12782433,9.95476449,5.47,3.38,ON,56.12779437,9.95474758,63.99,5.58,5.58,0.000,0.000,0.10,0.1,0.7
54849,12:56:52.304,-5.37,9.77,-75.37,56.12782668,9.95476182,5.56,3.47,ON,56.12779940,9.95474240,64.10,5.64,5.64,0.000,0.000,0.10,0.1,0.6
54949,12:56:52.404,-5.30,9.78,-73.37,56.12782939,9.95475888,5.56,3.55,ON,56.12779940,9.95474240,64.10,5.68,5.68,0.000,0.000,0.25,0.1,0.5
55049,12:56:52.504,-5.28,9.70,-71.44,56.12783205,9.95475602,5.65,3.63,ON,56.12780476,9.95473695,64.20,5.71,5.71,0.000,0.000,0.25,0.1,0.4
55148,12:56:52.603,-5.58,9.67,-69.55,56.12783492,9.95475293,5.65,3.69,ON,56.12780476,9.95473695,64.20,5.78,5.78,0.000,0.000,0.25,0.1,0.2
55249,12:56:52.704,-5.98,9.58,-67.56,56.12783773,9.95474982,5.75,3.75,ON,56.12781019,9.95473128,64.30,5.91,5.91,0.000,0.000,0.00,0.1,0.2
55348,12:56:52.803,-6.23,9.57,-65.58,56.12784074,9.95474670,5.75,3.81,ON,56.12781019,9.95473128,64.30,6.03,6.03,0.000,0.000,0.25,0.2,0.1
55452,12:56:52.907,-6.59,9.41,-63.68,56.12784365,9.95474384,5.86,3.87,ON,56.12781602,9.95472570,64.42,6.09,6.09,0.000,0.000,0.25,0.2,-0.1
55549,12:56:53.004,-7.08,9.35,-61.79,56.12784679,9.95474101,5.86,3.93,ON,56.12781602,9.95472570,64.42,6.13,6.13,0.000,0.000,0.25,0.2,-0.2
55649,12:56:53.104,-7.41,9.16,-59.88,56.12784986,9.95473837,5.97,4.00,ON,56.12782211,9.95472012,64.53,6.21,6.21,0.000,0.000,0.25,0.2,-0.2
55748,12:56:53.203,-7.97,8.89,-57.95,56.12785313,9.95473543,5.97,4.08,ON,56.12782211,9.95472012,64.53,6.26,6.26,0.000,0.000,0.25,0.2,-0.3
55849,12:56:53.304,-8.27,8.61,-55.94,56.12785629,9.95473269,6.08,4.15,ON,56.12782853,9.95471465,64.64,6.33,6.33,0.000,0.000,0.25,0.2,-0.3
55950,12:56:53.405,-8.16,8.47,-53.87,56.12785968,9.95472990,6.08,4.23,ON,56.12782853,9.95471465,64.64,6.41,6.41,0.000,0.000,0.25,0.2,-0.4
56049,12:56:53.504,-7.88,8.60,-51.75,56.12786283,9.95472733,6.18,4.31,ON,56.12783527,9.95470917,64.75,6.47,6.47,0.000,0.000,0.25,0.1,-0.4
56149,12:56:53.604,-7.70,8.56,-49.58,56.12786644,9.95472437,6.18,4.39,ON,56.12783527,9.95470917,64.75,6.75,6.75,0.000,0.000,0.25,0.1,-0.3
56249,12:56:53.704,-7.54,8.47,-47.56,56.12786997,9.95472155,6.29,4.47,ON,56.12784227,9.95470368,64.86,6.84,6.84,0.000,0.000,0.10,0.0,-0.4
56348,12:56:53.803,-7.15,8.52,-45.66,56.12787377,9.95471860,6.29,4.55,ON,56.12784227,9.95470368,64.86,6.98,6.98,0.000,0.000,0.25,-0.1,-0.3
56450,12:56:53.905,-6.48,8.70,-43.57,56.12787745,9.95471582,6.40,4.62,ON,56.12784966,9.95469814,64.97,7.17,7.17,0.000,0.000,0.10,-0.1,-0.3
56548,12:56:54.003,-6.15,8.84,-41.47,56.12788148,9.95471294,6.40,4.68,ON,56.12784966,9.95469814,64.97,7.42,7.42,0.000,0.000,0.10,-0.1,-0.3
56649,12:56:54.104,-5.85,8.85,-39.42,56.12788528,9.95471024,6.52,4.73,ON,56.12785726,9.95469273,65.09,7.50,7.50,0.000,0.000,0.10,-0.2,-0.2
56748,12:56:54.203,-5.61,8.88,-37.35,56.12788930,9.95470743,6.52,4.77,ON,56.12785726,9.95469273,65.09,7.53,7.53,0.000,0.000,0.25,-0.2,-0.2
56848,12:56:54.304,-5.94,8.77,-35.65,56.12789319,9.95470485,6.63,4.82,ON,56.12786509,9.95468748,65.22,7.64,7.64,0.000,0.000,0.10,-0.3,-0.2
56949,12:56:54.404,-6.76,8.47,-34.33,56.12789738,9.95470225,6.63,4.86,ON,56.12786509,9.95468748,65.22,7.76,7.76,0.000,0.000,0.25,-0.3,-0.2
57049,12:56:54.504,-7.68,7.66,-33.41,56.12790141,9.95469984,6.77,4.92,ON,56.12787320,9.95468240,65.36,8.03,8.03,0.000,0.000,0.25,-0.3,-0.2
57148,12:56:54.603,-8.50,6.69,-32.77,56.12790568,9.95469735,6.77,4.99,ON,56.12787320,9.95468240,65.36,8.13,8.13,0.000,0.000,0.25,-0.3,-0.2
57249,12:56:54.704,-9.01,5.57,-32.41,56.12790984,9.95469500,6.92,5.09,ON,56.12788159,9.95467746,65.51,8.18,8.18,0.000,0.000,0.25,-0.3,-0.3
57348,12:56:54.803,-9.54,4.99,-32.22,56.12791422,9.95469258,6.92,5.18,ON,56.12788159,9.95467746,65.51,8.31,8.31,0.000,0.000,0.10,-0.3,-0.3
57449,12:56:54.904,-9.64,4.76,-32.03,56.12791853,9.95469012,7.08,5.26,ON,56.12789030,9.95467245,65.67,8.33,8.33,0.000,0.000,0.25,-0.2,-0.4
57549,12:56:55.004,-9.59,4.79,-31.86,56.12792315,9.95468745,7.08,5.32,ON,56.12789030,9.95467245,65.67,8.42,8.42,0.000,0.000,0.10,-0.2,-0.4
57648,12:56:55.103,-9.68,4.40,-31.79,56.12792759,9.95468487,7.26,5.37,ON,56.12789936,9.95466730,65.84,8.48,8.48,0.000,0.000,0.10,-0.1,-0.6
57748,12:56:55.204,-9.98,4.16,-31.71,56.12793230,9.95468197,7.26,5.41,ON,56.12789936,9.95466730,65.84,8.57,8.57,0.000,0.000,0.25,0.1,-0.7
57848,12:56:55.303,-10.33,4.03,-31.61,56.12793680,9.95467934,7.43,5.44,ON,56.12790855,9.95466200,66.00,8.64,8.64,0.000,0.000,0.10,0.1,-0.8
57950,12:56:55.405,-10.89,3.81,-31.56,56.12794155,9.95467660,7.43,5.48,ON,56.12790855,9.95466200,66.00,8.81,8.81,0.000,0.000,0.25,0.2,-0.9
58049,12:56:55.504,-11.34,3.53,-31.48,56.12794609,9.95467400,7.55,5.51,ON,56.12791786,9.95465675,66.13,8.84,8.84,0.000,0.000,0.10,0.3,-1.0
58149,12:56:55.604,-11.62,3.27,-31.37,56.12795087,9.95467132,7.55,5.55,ON,56.12791786,9.95465675,66.13,8.85,8.85,0.000,0.000,0.25,0.4,-1.1
58249,12:56:55.704,-11.51,2.84,-31.20,56.12795544,9.95466885,7.63,5.61,ON,56.12792730,9.95465138,66.20,8.88,8.88,0.000,0.000,0.10,0.5,-1.1
58349,12:56:55.804,-11.17,2.43,-31.00,56.12796034,9.95466615,7.63,5.66,ON,56.12792730,9.95465138,66.20,8.96,8.96,0.000,0.000,0.25,0.6,-1.2
58450,12:56:55.905,-10.94,1.95,-30.89,56.12796506,9.95466361,7.66,5.72,ON,56.12793695,9.95464619,66.24,9.00,9.00,0.000,0.000,0.10,0.6,-1.3
58548,12:56:56.003,-10.72,1.31,-30.82,56.12797008,9.95466098,7.66,5.78,ON,56.12793695,9.95464619,66.24,9.09,9.09,0.000,0.000,0.25,0.6,-1.4
58649,12:56:56.104,-10.46,0.59,-30.80,56.12797491,9.95465857,7.67,5.82,ON,56.12794681,9.95464102,66.25,9.10,9.10,0.000,0.000,0.25,0.7,-1.4
58748,12:56:56.203,-10.12,-0.07,-30.85,56.12798012,9.95465577,7.67,5.87,ON,56.12794681,9.95464102,66.25,9.12,9.12,0.000,0.000,0.10,0.6,-1.4
58849,12:56:56.304,-9.73,-0.39,-30.90,56.12798510,9.95465306,7.67,5.90,ON,56.12795674,9.95463567,66.26,9.13,9.13,0.000,0.000,0.10,0.6,-1.5
58950,12:56:56.405,-9.33,-0.61,-31.04,56.12799034,9.95465017,7.67,5.94,ON,56.12795674,9.95463567,66.26,9.18,9.18,0.000,0.000,0.25,0.6,-1.5
59049,12:56:56.504,-8.66,-0.81,-31.17,56.12799559,9.95464724,7.66,5.96,ON,56.12796680,9.95463007,66.26,9.21,9.21,0.000,0.000,0.25,0.5,-1.5
59148,12:56:56.604,-7.76,-0.88,-31.30,56.12800082,9.95464416,7.66,5.98,ON,56.12796680,9.95463007,66.26,9.22,9.22,0.000,0.000,0.25,0.4,-1.5
59249,12:56:56.704,-7.12,-1.03,-31.43,56.12800572,9.95464117,7.63,5.98,ON,56.12797684,9.95462415,66.24,9.22,9.22,0.000,0.000,0.25,0.3,-1.5
59348,12:56:56.804,-6.12,-0.79,-31.54,56.12801070,9.95463800,7.63,5.98,ON,56.12797684,9.95462415,66.24,9.21,9.21,0.000,0.000,0.10,0.2,-1.5
59451,12:56:56.906,-5.52,-0.40,-31.63,56.12801513,9.95463508,7.57,5.98,ON,56.12798683,9.95461790,66.19,9.17,9.17,0.000,0.000,0.25,0.2,-1.5
59548,12:56:57.003,-4.76,-0.03,-31.68,56.12802019,9.95463174,7.57,5.96,ON,56.12798683,9.95461790,66.19,9.16,9.16,0.000,0.000,0.10,0.1,-1.4
59648,12:56:57.103,-4.07,0.27,-31.71,56.12802500,9.95462850,7.48,5.95,ON,56.12799679,9.95461147,66.12,9.16,9.16,0.000,0.000,0.25,0.1,-1.4
59748,12:56:57.203,-3.55,0.40,-31.71,56.12803008,9.95462504,7.48,5.93,ON,56.12799679,9.95461147,66.12,9.09,9.09,0.000,0.000,0.25,0.0,-1.4
59849,12:56:57.304,-3.09,0.53,-31.65,56.12803488,9.95462171,7.38,5.92,ON,56.12800664,9.95460475,66.02,9.08,9.08,0.000,0.000,0.25,0.0,-1.4
59949,12:56:57.404,-3.00,0.51,-31.59,56.12804001,9.95461825,7.38,5.90,ON,56.12800664,9.95460475,66.02,9.04,9.04,0.000,0.000,0.25,0.0,-1.4
60050,12:56:57.505,-2.96,0.38,-31.51,56.12804478,9.95461488,7.26,5.89,ON,56.12801638,9.95459790,65.92,8.99,8.99,0.000,0.000,0.25,0.0,-1.4
60148,12:56:57.603,-2.81,0.36,-31.44,56.12804980,9.95461134,7.26,5.87,ON,56.12801638,9.95459790,65.92,8.95,8.95,0.000,0.000,0.10,0.0,-1.4
60249,12:56:57.704,-2.62,0.40,-31.36,56.12805455,9.95460792,7.14,5.86,ON,56.12802607,9.95459095,65.81,8.91,8.91,0.000,0.000,0.10,0.1,-1.3
60349,12:56:57.804,-2.69,0.40,-31.28,56.12805952,9.95460425,7.14,5.84,ON,56.12802607,9.95459095,65.81,8.81,8.81,0.000,0.000,0.25,0.1,-1.3
60452,12:56:57.907,-2.86,0.25,-31.22,56.12806427,9.95460077,7.03,5.83,ON,56.12803565,9.95458397,65.70,8.77,8.77,0.000,0.000,0.10,0.2,-1.2
60548,12:56:58.003,-3.01,0.01,-31.20,56.12806933,9.95459715,7.03,5.82,ON,56.12803565,9.95458397,65.70,8.73,8.73,0.000,0.000,0.25,0.2,-1.2
60649,12:56:58.104,-3.04,-0.27,-31.15,56.12807411,9.95459370,6.90,5.79,ON,56.12804521,9.95457711,65.59,8.67,8.67,0.000,0.000,0.10,0.3,-1.1
60749,12:56:58.204,-3.34,-0.58,-31.06,56.12807918,9.95458998,6.90,5.77,ON,56.12804521,9.95457711,65.59,8.59,8.59,0.000,0.000,0.25,0.4,-1.1
60849,12:56:58.304,-3.68,-0.72,-31.01,56.12808381,9.95458655,6.78,5.74,ON,56.12805470,9.95457022,65.47,8.53,8.53,0.000,0.000,0.25,0.4,-1.1
60950,12:56:58.405,-4.02,-0.79,-30.98,56.12808859,9.95458298,6.78,5.71,ON,56.12805470,9.95457022,65.47,8.48,8.48,0.000,0.000,0.10,0.5,-1.0
61049,12:56:58.504,-4.37,-0.92,-30.99,56.12809314,9.95457966,6.65,5.69,ON,56.12806411,9.95456338,65.35,8.45,8.45,0.000,0.000,0.10,0.6,-1.0
61148,12:56:58.603,-4.36,-1.07,-31.02,56.12809780,9.95457666,6.65,5.67,ON,56.12806411,9.95456338,65.35,8.38,8.38,0.000,0.000,0.00,0.6,-0.9
61249,12:56:58.704,-4.43,-1.48,-31.06,56.12810238,9.95457341,6.53,5.66,ON,56.12807346,9.95455661,65.23,8.27,8.27,0.000,0.000,0.25,0.6,-0.9
61348,12:56:58.803,-4.54,-1.87,-31.05,56.12810715,9.95456988,6.53,5.64,ON,56.12807346,9.95455661,65.23,8.23,8.23,0.000,0.000,0.25,0.7,-0.9
61450,12:56:58.905,-4.94,-2.03,-31.10,56.12811161,9.95456648,6.41,5.63,ON,56.12808271,9.95454979,65.11,8.19,8.19,0.000,0.000,0.10,0.7,-0.8
61548,12:56:59.003,-5.49,-2.05,-31.13,56.12811615,9.95456285,6.41,5.62,ON,56.12808271,9.95454979,65.11,8.15,8.15,0.000,0.000,0.25,0.7,-0.8
61648,12:56:59.104,-5.89,-1.63,-31.19,56.12812011,9.95455935,6.31,5.61,ON,56.12809194,9.95454276,65.01,8.10,8.10,0.000,0.000,0.25,0.8,-0.8
61748,12:56:59.203,-6.61,-1.14,-31.23,56.12812483,9.95455547,6.31,5.61,ON,56.12809194,9.95454276,65.01,8.04,8.04,0.000,0.000,0.10,0.8,-0.8
61849,12:56:59.304,-7.26,-0.65,-31.32,56.12812932,9.95455175,6.23,5.63,ON,56.12810109,9.95453553,64.92,7.99,7.99,0.000,0.000,0.10,0.8,-0.8
61950,12:56:59.405,-7.27,-0.31,-31.40,56.12813405,9.95454784,6.23,5.66,ON,56.12810109,9.95453553,64.92,7.95,7.95,0.000,0.000,0.10,0.8,-0.8
62049,12:56:59.504,-6.94,-0.35,-31.38,56.12813879,9.95454403,6.17,5.71,ON,56.12811026,9.95452800,64.84,7.91,7.91,0.000,0.000,0.25,0.7,-0.8
62148,12:56:59.603,-6.56,-0.21,-31.34,56.12814361,9.95454000,6.17,5.76,ON,56.12811026,9.95452800,64.84,7.81,7.81,0.000,0.000,0.25,0.7,-0.8
62249,12:56:59.704,-5.94,-0.10,-31.38,56.12814821,9.95453604,6.14,5.80,ON,56.12811947,9.95452021,64.80,7.78,7.78,0.000,0.000,0.25,0.7,-0.8
62348,12:56:59.803,-4.90,0.27,-31.34,56.12815307,9.95453171,6.14,5.83,ON,56.12811947,9.95452021,64.80,7.75,7.75,0.000,0.000,0.10,0.6,-0.8
62450,12:56:59.905,-4.14,1.27,-31.33,56.12815781,9.95452749,6.11,5.84,ON,56.12812871,9.95451208,64.74,7.72,7.72,0.000,0.000,0.10,0.6,-0.8
62548,12:57:00.003,-4.01,1.43,-31.41,56.12816264,9.95452323,6.11,5.84,ON,56.12812871,9.95451208,64.74,7.66,7.66,0.000,0.000,0.10,0.6,-0.9
62649,12:57:00.104,-4.48,0.73,-31.48,56.12816723,9.95451921,6.10,5.84,ON,56.12813806,9.95450394,64.71,7.66,7.66,0.000,0.000,0.25,0.5,-0.9
62748,12:57:00.203,-4.95,0.21,-31.51,56.12817207,9.95451504,6.10,5.85,ON,56.12813806,9.95450394,64.71,7.64,7.64,0.000,0.000,0.25,0.5,-0.9
62849,12:57:00.304,-5.12,0.03,-31.56,56.12817658,9.95451125,6.08,5.86,ON,56.12814741,9.95449563,64.70,7.63,7.63,0.000,0.000,0.10,0.5,-0.9
62949,12:57:00.404,-4.93,0.07,-31.73,56.12818142,9.95450693,6.08,5.88,ON,56.12814741,9.95449563,64.70,7.60,7.60,0.000,0.000,0.10,0.4,-0.9
63049,12:57:00.504,-4.51,0.03,-32.00,56.12818606,9.95450274,6.05,5.90,ON,56.12815672,9.95448727,64.66,7.60,7.60,0.000,0.000,0.25,0.4,-1.0
63148,12:57:00.603,-4.53,0.04,-32.46,56.12819098,9.95449823,6.05,5.90,ON,56.12815672,9.95448727,64.66,7.58,7.58,0.000,0.000,0.25,0.4,-1.0
63249,12:57:00.704,-4.54,0.01,-33.05,56.12819558,9.95449397,6.01,5.91,ON,56.12816612,9.95447873,64.62,7.56,7.56,0.000,0.000,0.10,0.4,-1.0
63349,12:57:00.804,-4.51,0.09,-33.74,56.12820003,9.95448961,6.01,5.89,ON,56.12816612,9.95447873,64.62,7.54,7.54,0.000,0.000,0.10,0.4,-1.0
63451,12:57:00.906,-4.43,0.25,-34.49,56.12820446,9.95448540,5.97,5.87,ON,56.12817554,9.95447002,64.59,7.52,7.52,0.000,0.000,0.25,0.4,-1.0
63549,12:57:01.004,-4.10,0.21,-35.25,56.12820912,9.95448093,5.97,5.84,ON,56.12817554,9.95447002,64.59,7.50,7.50,0.000,0.000,0.10,0.4,-1.0
63649,12:57:01.104,-3.97,0.18,-36.06,56.12821358,9.95447667,5.94,5.83,ON,56.12818485,9.95446122,64.54,7.47,7.47,0.000,0.000,0.25,0.4,-1.0
63748,12:57:01.203,-4.26,0.46,-36.77,56.12821828,9.95447227,5.94,5.81,ON,56.12818485,9.95446122,64.54,7.46,7.46,0.000,0.000,0.10,0.4,-1.0
63849,12:57:01.304,-4.56,0.42,-37.57,56.12822280,9.95446799,5.90,5.80,ON,56.12819415,9.95445241,64.51,7.45,7.45,0.000,0.000,0.25,0.4,-1.0
63949,12:57:01.404,-4.61,0.34,-38.37,56.12822756,9.95446349,5.90,5.79,ON,56.12819415,9.95445241,64.51,7.42,7.42,0.000,0.000,0.10,0.4,-1.0
64049,12:57:01.504,-4.88,0.10,-39.14,56.12823208,9.95445920,5.88,5.78,ON,56.12820339,9.95444355,64.48,7.40,7.40,0.000,0.000,0.25,0.4,-1.0
64148,12:57:01.603,-5.22,-0.38,-39.90,56.12823692,9.95445467,5.88,5.79,ON,56.12820339,9.95444355,64.48,7.39,7.39,0.000,0.000,0.25,0.4,-1.0
64249,12:57:01.704,-5.43,-0.67,-40.62,56.12824138,9.95445029,5.84,5.79,ON,56.12821255,9.95443445,64.45,7.38,7.38,0.000,0.000,0.25,0.4,-1.0
64348,12:57:01.803,-5.62,-0.59,-41.32,56.12824604,9.95444563,5.84,5.79,ON,56.12821255,9.95443445,64.45,7.36,7.36,0.000,0.000,0.00,0.4,-1.0
64452,12:57:01.907,-5.27,-0.61,-42.04,56.12825045,9.95444110,5.80,5.78,ON,56.12822167,9.95442520,64.42,7.34,7.34,0.000,0.000,0.10,0.4,-1.0
64548,12:57:02.003,-4.66,-0.41,-42.86,56.12825512,9.95443625,5.80,5.77,ON,56.12822167,9.95442520,64.42,7.31,7.31,0.000,0.000,0.25,0.4,-1.0
64649,12:57:02.104,-4.43,0.17,-43.70,56.12825945,9.95443154,5.77,5.75,ON,56.12823060,9.95441574,64.38,7.30,7.30,0.000,0.000,0.25,0.3,-1.0
64749,12:57:02.204,-4.25,1.06,-44.37,56.12826393,9.95442654,5.77,5.74,ON,56.12823060,9.95441574,64.38,7.27,7.27,0.000,0.000,0.25,0.3,-1.0
64849,12:57:02.304,-4.36,1.83,-44.91,56.12826817,9.95442173,5.75,5.74,ON,56.12823939,9.95440600,64.34,7.26,7.26,0.000,0.000,0.10,0.3,-1.0
64949,12:57:02.404,-4.30,1.96,-45.35,56.12827264,9.95441663,5.75,5.74,ON,56.12823939,9.95440600,64.34,7.23,7.23,0.000,0.000,0.10,0.2,-1.0
65049,12:57:02.504,-4.18,1.98,-45.69,56.12827676,9.95441169,5.73,5.74,ON,56.12824812,9.95439608,64.32,7.22,7.22,0.000,0.000,0.25,0.2,-1.1
65148,12:57:02.603,-4.26,2.24,-45.82,56.12828116,9.95440662,5.73,5.74,ON,56.12824812,9.95439608,64.32,7.21,7.21,0.000,0.000,0.25,0.2,-1.1
65249,12:57:02.704,-4.85,2.02,-45.84,56.12828536,9.95440182,5.70,5.75,ON,56.12825687,9.95438626,64.30,7.20,7.20,0.000,0.000,0.10,0.1,-1.1
65348,12:57:02.803,-4.49,1.75,-45.72,56.12828980,9.95439681,5.70,5.75,ON,56.12825687,9.95438626,64.30,7.18,7.18,0.000,0.000,0.10,0.1,-1.1
65453,12:57:02.908,-4.50,1.39,-45.69,56.12829392,9.95439223,5.66,5.75,ON,56.12826557,9.95437636,64.28,7.17,7.17,0.000,0.000,0.25,0.0,-1.1
65549,12:57:03.004,-4.27,0.72,-45.66,56.12829836,9.95438718,5.66,5.75,ON,56.12826557,9.95437636,64.28,7.16,7.16,0.000,0.000,0.25,0.1,-1.1
65648,12:57:03.103,-4.35,0.46,-45.67,56.12830263,9.95438227,5.65,5.75,ON,56.12827423,9.95436643,64.27,7.15,7.15,0.000,0.000,0.00,0.0,-1.0
65748,12:57:03.203,-4.63,0.11,-45.69,56.12830716,9.95437696,5.65,5.74,ON,56.12827423,9.95436643,64.27,7.15,7.15,0.000,0.000,0.25,0.0,-1.0
65849,12:57:03.304,-4.90,0.30,-45.66,56.12831154,9.95437179,5.64,5.73,ON,56.12828287,9.95435637,64.27,7.14,7.14,0.000,0.000,0.25,0.0,-1.0
65949,12:57:03.404,-4.95,0.43,-45.70,56.12831584,9.95436665,5.64,5.73,ON,56.12828287,9.95435637,64.27,7.14,7.14,0.000,0.000,0.10,0.1,-1.0
66049,12:57:03.504,-4.95,0.43,-45.68,56.12831993,9.95436168,5.65,5.73,ON,56.12829146,9.95434617,64.26,7.15,7.15,0.000,0.000,0.10,0.1,-1.0
66149,12:57:03.604,-4.94,0.17,-45.67,56.12832424,9.95435634,5.65,5.74,ON,56.12829146,9.95434617,64.26,7.14,7.14,0.000,0.000,0.25,0.1,-1.0
66249,12:57:03.704,-5.16,0.22,-45.63,56.12832818,9.95435141,5.65,5.75,ON,56.12829998,9.95433574,64.26,7.14,7.14,0.000,0.000,0.25,0.1,-1.0
66349,12:57:03.804,-5.42,-0.08,-45.64,56.12833248,9.95434594,5.65,5.76,ON,56.12829998,9.95433574,64.26,7.14,7.14,0.000,0.000,0.10,0.2,-1.0
66450,12:57:03.905,-5.54,-0.14,-45.66,56.12833657,9.95434068,5.65,5.77,ON,56.12830846,9.95432512,64.26,7.14,7.14,0.000,0.000,0.10,0.2,-1.0
66549,12:57:04.004,-5.59,0.31,-45.69,56.12834085,9.95433510,5.65,5.77,ON,56.12830846,9.95432512,64.26,7.14,7.14,0.000,0.000,0.10,0.2,-1.0
66649,12:57:04.104,-5.87,1.07,-45.71,56.12834494,9.95432975,5.65,5.79,ON,56.12831690,9.95431430,64.25,7.13,7.13,0.000,0.000,0.10,0.3,-0.9
66748,12:57:04.204,-6.40,1.50,-45.72,56.12834931,9.95432391,5.65,5.81,ON,56.12831690,9.95431430,64.25,7.13,7.13,0.000,0.000,0.25,0.3,-0.9
66848,12:57:04.303,-6.69,1.37,-45.77,56.12835347,9.95431851,5.65,5.84,ON,56.12832542,9.95430335,64.24,7.13,7.13,0.000,0.000,0.25,0.3,-0.9
66949,12:57:04.405,-6.45,0.69,-45.71,56.12835789,9.95431285,5.65,5.88,ON,56.12832542,9.95430335,64.24,7.12,7.12,0.000,0.000,0.25,0.4,-0.9
67049,12:57:04.504,-6.11,0.00,-45.59,56.12836210,9.95430745,5.64,5.90,ON,56.12833396,9.95429233,64.24,7.12,7.12,0.000,0.000,0.25,0.4,-0.9
67148,12:57:04.603,-5.78,-0.49,-45.57,56.12836660,9.95430181,5.64,5.93,ON,56.12833396,9.95429233,64.24,7.12,7.12,0.000,0.000,0.25,0.4,-0.9
67248,12:57:04.703,-5.36,-0.89,-45.56,56.12837081,9.95429631,5.64,5.94,ON,56.12834262,9.95428119,64.25,7.12,7.12,0.000,0.000,0.10,0.4,-0.9
67348,12:57:04.803,-4.94,-1.05,-45.61,56.12837522,9.95429043,5.64,5.94,ON,56.12834262,9.95428119,64.25,7.12,7.12,0.000,0.000,0.10,0.4,-0.9
67450,12:57:04.905,-4.74,-0.94,-45.65,56.12837941,9.95428479,5.64,5.93,ON,56.12835126,9.95426983,64.26,7.13,7.13,0.000,0.000,0.10,0.4,-0.9
67549,12:57:05.004,-4.68,-0.73,-45.69,56.12838382,9.95427868,5.64,5.92,ON,56.12835126,9.95426983,64.26,7.13,7.13,0.000,0.000,0.10,0.4,-0.9
67649,12:57:05.104,-4.88,-0.40,-45.76,56.12838791,9.95427303,5.65,5.91,ON,56.12835977,9.95425836,64.26,7.13,7.13,0.000,0.000,0.25,0.4,-0.9
67748,12:57:05.203,-4.82,-0.25,-45.83,56.12839211,9.95426713,5.65,5.90,ON,56.12835977,9.95425836,64.26,7.12,7.12,0.000,0.000,0.10,0.4,-0.9
67849,12:57:05.304,-4.60,-0.26,-45.88,56.12839615,9.95426139,5.65,5.89,ON,56.12836828,9.95424674,64.25,7.12,7.12,0.000,0.000,0.10,0.4,-0.9
67949,12:57:05.404,-4.52,-0.29,-45.90,56.12840061,9.95425502,5.65,5.88,ON,56.12836828,9.95424674,64.25,7.12,7.12,0.000,0.000,0.25,0.4,-0.8
68049,12:57:05.504,-4.21,0.13,-45.83,56.12840472,9.95424909,5.64,5.87,ON,56.12837660,9.95423496,64.26,7.12,7.12,0.000,0.000,0.25,0.4,-0.8
68148,12:57:05.603,-4.32,0.80,-45.73,56.12840897,9.95424289,5.64,5.87,ON,56.12837660,9.95423496,64.26,7.12,7.12,0.000,0.000,0.10,0.5,-0.8
68248,12:57:05.703,-4.32,1.23,-45.69,56.12841306,9.95423691,5.65,5.88,ON,56.12838491,9.95422308,64.26,7.13,7.13,0.000,0.000,0.10,0.5,-0.8
68349,12:57:05.804,-3.77,1.17,-45.70,56.12841742,9.95423056,5.65,5.89,ON,56.12838491,9.95422308,64.26,7.13,7.13,0.000,0.000,0.00,0.5,-0.8
68450,12:57:05.905,-3.13,0.74,-45.74,56.12842174,9.95422433,5.67,5.88,ON,56.12839319,9.95421116,64.27,7.14,7.14,0.000,0.000,0.10,0.5,-0.8
68548,12:57:06.003,-2.25,0.26,-45.74,56.12842588,9.95421829,5.67,5.87,ON,56.12839319,9.95421116,64.27,7.14,7.14,0.000,0.000,0.00,0.5,-0.8
68649,12:57:06.104,-1.76,-0.37,-45.79,56.12842982,9.95421256,5.67,5.84,ON,56.12840143,9.95419923,64.28,7.14,7.14,0.000,0.000,0.25,0.5,-0.8
68749,12:57:06.204,-1.52,-1.10,-45.82,56.12843397,9.95420651,5.67,5.80,ON,56.12840143,9.95419923,64.28,7.14,7.14,0.000,0.000,0.10,0.5,-0.8
68849,12:57:06.304,-1.14,-1.30,-45.87,56.12843761,9.95420106,5.67,5.75,ON,56.12840957,9.95418736,64.29,7.14,7.14,0.000,0.000,0.10,0.5,-0.7
68950,12:57:06.405,-0.83,-0.98,-45.86,56.12844163,9.95419495,5.67,5.70,ON,56.12840957,9.95418736,64.29,7.14,7.14,0.000,0.000,0.25,0.6,-0.7
69048,12:57:06.504,-0.95,-0.63,-45.83,56.12844539,9.95418913,5.68,5.65,ON,56.12841740,9.95417556,64.30,7.15,7.15,0.000,0.000,0.10,0.6,-0.7
69148,12:57:06.603,-1.11,-0.22,-45.82,56.12844929,9.95418301,5.68,5.59,ON,56.12841740,9.95417556,64.30,7.15,7.15,0.000,0.000,0.25,0.6,-0.7
69249,12:57:06.704,-1.32,0.40,-45.78,56.12845290,9.95417711,5.68,5.54,ON,56.12842509,9.95416371,64.31,7.15,7.15,0.000,0.000,0.00,0.6,-0.7
69349,12:57:06.804,-0.93,0.96,-45.76,56.12845671,9.95417102,5.68,5.49,ON,56.12842509,9.95416371,64.31,7.15,7.15,0.000,0.000,0.10,0.6,-0.6
69450,12:57:06.905,-0.49,1.54,-45.65,56.12846029,9.95416528,5.68,5.43,ON,56.12843259,9.95415195,64.31,7.15,7.15,0.000,0.000,0.25,0.6,-0.6
69548,12:57:07.003,-0.00,1.96,-45.54,56.12846403,9.95415933,5.68,5.38,ON,56.12843259,9.95415195,64.31,7.16,7.16,0.000,0.000,0.10,0.6,-0.6
69649,12:57:07.104,0.59,2.23,-45.49,56.12846756,9.95415369,5.69,5.32,ON,56.12843990,9.95414042,64.31,7.16,7.16,0.000,0.000,0.10,0.6,-0.6
69748,12:57:07.203,0.96,2.12,-45.43,56.12847123,9.95414795,5.69,5.25,ON,56.12843990,9.95414042,64.31,7.16,7.16,0.000,0.000,0.25,0.6,-0.6
69848,12:57:07.303,1.03,1.51,-45.47,56.12847471,9.95414263,5.70,5.17,ON,56.12844715,9.95412934,64.31,7.16,7.16,0.000,0.000,0.25,0.6,-0.6
69950,12:57:07.405,1.11,0.70,-45.55,56.12847836,9.95413720,5.70,5.11,ON,56.12844715,9.95412934,64.31,7.16,7.16,0.000,0.000,0.10,0.6,-0.5
70049,12:57:07.504,0.85,-0.26,-45.71,56.12848181,9.95413212,5.69,5.04,ON,56.12845425,9.95411876,64.31,7.17,7.17,0.000,0.000,0.00,0.6,-0.5
70148,12:57:07.603,0.39,-1.11,-45.81,56.12848544,9.95412683,5.69,4.97,ON,56.12845425,9.95411876,64.31,7.16,7.16,0.000,0.000,0.25,0.6,-0.5
70249,12:57:07.704,0.17,-1.67,-45.88,56.12848878,9.95412184,5.69,4.91,ON,56.12846119,9.95410851,64.31,7.16,7.16,0.000,0.000,0.00,0.6,-0.5
70348,12:57:07.803,-0.07,-1.38,-45.92,56.12849222,9.95411659,5.69,4.86,ON,56.12846119,9.95410851,64.31,7.16,7.16,0.000,0.000,0.00,0.7,-0.5
70452,12:57:07.907,-0.22,-0.88,-45.94,56.12849543,9.95411163,5.69,4.81,ON,56.12846790,9.95409843,64.31,7.16,7.16,0.000,0.000,0.10,0.7,-0.4
70548,12:57:08.003,-0.37,-0.40,-45.96,56.12849864,9.95410652,5.69,4.77,ON,56.12846790,9.95409843,64.31,7.17,7.17,0.000,0.000,0.25,0.7,-0.4
70649,12:57:08.104,-0.68,0.03,-45.95,56.12850173,9.95410164,5.70,4.74,ON,56.12847440,9.95408837,64.30,7.16,7.16,0.000,0.000,0.25,0.7,-0.4
70748,12:57:08.203,-0.82,0.21,-45.97,56.12850498,9.95409652,5.70,4.72,ON,56.12847440,9.95408837,64.30,7.17,7.17,0.000,0.000,0.10,0.6,-0.4
70848,12:57:08.303,-0.97,0.14,-45.97,56.12850809,9.95409163,5.70,4.69,ON,56.12848079,9.95407843,64.30,7.16,7.16,0.000,0.000,0.25,0.6,-0.4
70949,12:57:08.404,-0.89,-0.08,-45.94,56.12851147,9.95408635,5.70,4.67,ON,56.12848079,9.95407843,64.30,7.16,7.16,0.000,0.000,0.25,0.6,-0.4
71049,12:57:08.504,-0.93,-0.38,-45.90,56.12851452,9.95408149,5.69,4.64,ON,56.12848707,9.95406854,64.29,7.16,7.16,0.000,0.000,0.00,0.6,-0.4
71149,12:57:08.604,-1.02,-0.46,-45.89,56.12851759,9.95407649,5.69,4.61,ON,56.12848707,9.95406854,64.29,7.16,7.16,0.000,0.000,0.00,0.6,-0.4
71249,12:57:08.704,-0.56,-0.39,-45.86,56.12852050,9.95407174,5.69,4.59,ON,56.12849321,9.95405868,64.29,7.16,7.16,0.000,0.000,0.10,0.6,-0.4
71348,12:57:08.803,2.81,-0.22,-45.76,56.12852339,9.95406696,5.69,4.54,ON,56.12849321,9.95405868,64.29,7.16,7.16,0.000,0.000,0.10,0.6,-0.3
71450,12:57:08.905,11.66,-0.45,-45.72,56.12852627,9.95406230,5.69,4.37,ON,56.12849919,9.95404905,64.28,7.16,7.16,0.000,0.000,0.10,0.6,-0.3
71548,12:57:09.003,17.43,-0.76,-45.91,56.12852915,9.95405767,5.69,4.07,ON,56.12849919,9.95404905,64.28,7.16,7.16,0.000,0.000,0.10,0.6,-0.3
71649,12:57:09.104,21.73,-0.84,-46.09,56.12853166,9.95405364,5.69,3.67,ON,56.12850454,9.95404051,64.27,7.18,7.18,0.000,0.000,0.25,0.6,-0.3
71748,12:57:09.203,24.34,-0.81,-46.15,56.12853397,9.95404993,5.69,3.17,ON,56.12850454,9.95404051,64.27,7.19,7.19,0.000,0.000,0.25,0.6,-0.2
71849,12:57:09.304,25.10,-1.39,-46.22,56.12853588,9.95404700,5.68,2.64,ON,56.12850906,9.95403340,64.25,7.29,7.29,0.000,0.000,0.00,0.6,-0.2
71950,12:57:09.405,23.82,-1.78,-46.35,56.12853754,9.95404444,5.68,2.10,ON,56.12850906,9.95403340,64.25,7.63,7.63,0.000,0.000,0.10,0.6,-0.2
72049,12:57:09.504,21.21,-2.37,-46.51,56.12853878,9.95404262,5.66,1.58,ON,56.12851231,9.95402833,64.24,7.76,7.76,0.000,0.000,0.10,0.6,-0.2
72148,12:57:09.603,17.57,-2.46,-46.52,56.12853973,9.95404133,5.66,1.16,ON,56.12851231,9.95402833,64.24,7.76,7.76,0.000,0.000,0.25,0.6,-0.2
72249,12:57:09.704,14.22,-2.07,-46.35,56.12854024,9.95404058,5.63,0.86,ON,56.12851436,9.95402521,64.23,7.67,7.67,0.000,0.000,0.10,0.6,-0.1
72348,12:57:09.803,11.41,-1.52,-46.18,56.12854073,9.95403975,5.63,0.66,ON,56.12851436,9.95402521,64.23,7.39,7.39,0.000,0.000,0.00,0.7,-0.1
72450,12:57:09.905,9.49,-0.86,-46.11,56.12854109,9.95403907,5.62,0.54,ON,56.12851556,9.95402337,64.23,7.30,7.30,0.000,0.000,0.00,0.7,-0.1
72549,12:57:10.004,8.41,-0.32,-46.05,56.12854141,9.95403839,5.62,0.46,ON,56.12851556,9.95402337,64.23,7.18,7.18,0.000,0.000,0.25,0.7,0.1
72649,12:57:10.104,7.89,0.06,-46.03,56.12854147,9.95403754,5.61,0.40,ON,56.12851630,9.95402212,64.20,7.15,7.15,0.000,0.000,0.25,0.7,0.1
72749,12:57:10.204,7.51,0.25,-46.03,56.12854171,9.95403698,5.61,0.36,ON,56.12851630,9.95402212,64.20,7.11,7.11,0.000,0.000,0.00,0.8,0.1
72849,12:57:10.304,7.15,0.11,-46.02,56.12854193,9.95403652,5.56,0.32,ON,56.12851683,9.95402122,64.15,7.09,7.09,0.000,0.000,0.10,0.8,0.2
72950,12:57:10.405,6.78,-0.04,-45.99,56.12854216,9.95403612,5.56,0.29,ON,56.12851683,9.95402122,64.15,7.07,7.07,0.000,0.000,0.10,0.8,0.2
73049,12:57:10.504,6.42,-0.12,-45.94,56.12854232,9.95403562,5.46,0.25,ON,56.12851722,9.95402055,64.07,7.04,7.04,0.000,0.000,0.10,0.8,0.2
73148,12:57:10.603,6.07,-0.14,-45.89,56.12854243,9.95403532,5.46,0.21,ON,56.12851722,9.95402055,64.07,7.03,7.03,0.000,0.000,0.00,0.8,0.3
73249,12:57:10.704,5.52,-0.08,-45.90,56.12854252,9.95403508,5.31,0.16,ON,56.12851748,9.95402017,63.95,6.94,6.94,0.000,0.000,0.25,0.8,0.3
73348,12:57:10.803,4.76,-0.09,-45.89,56.12854260,9.95403488,5.31,0.09,ON,56.12851748,9.95402017,63.95,6.89,6.89,0.000,0.000,0.10,0.8,0.3
73450,12:57:10.905,3.76,-0.10,-45.95,56.12854265,9.95403480,5.15,0.03,ON,56.12851768,9.95401989,63.81,6.84,6.84,0.000,0.000,0.25,0.8,0.4
73548,12:57:11.003,2.43,-0.08,-46.03,56.12854273,9.95403495,5.15,0.10,ON,56.12851768,9.95401989,63.81,6.78,6.78,0.000,0.000,0.10,0.8,0.4
73649,12:57:11.104,0.88,-0.08,-46.10,56.12854267,9.95403514,4.96,0.19,ON,56.12851763,9.95402007,63.64,6.66,6.66,0.000,0.000,0.10,0.9,0.5
73748,12:57:11.203,-0.51,-0.08,-46.18,56.12854252,9.95403549,4.96,0.27,ON,56.12851763,9.95402007,63.64,6.61,6.61,0.000,0.000,0.25,0.9,0.6
73849,12:57:11.304,-1.94,0.03,-46.23,56.12854234,9.95403584,4.77,0.33,ON,56.12851743,9.95402043,63.46,6.55,6.55,0.000,0.000,0.10,0.9,0.6
73950,12:57:11.405,-3.32,0.16,-46.25,56.12854209,9.95403636,4.77,0.37,ON,56.12851743,9.95402043,63.46,6.51,6.51,0.000,0.000,0.10,0.9,0.6
74049,12:57:11.504,-4.54,0.21,-46.26,56.12854189,9.95403670,4.57,0.39,ON,56.12851702,9.95402115,63.28,6.46,6.46,0.000,0.000,0.25,0.8,0.6
74148,12:57:11.603,-5.34,0.16,-46.25,56.12854165,9.95403708,4.57,0.38,ON,56.12851702,9.95402115,63.28,6.39,6.39,0.000,0.000,0.10,0.8,0.6
74249,12:57:11.704,-5.95,0.02,-46.18,56.12854146,9.95403742,4.40,0.36,ON,56.12851654,9.95402195,63.10,6.20,6.20,0.000,0.000,0.25,0.8,0.6
74348,12:57:11.803,-6.36,-0.13,-46.13,56.12854135,9.95403777,4.40,0.33,ON,56.12851654,9.95402195,63.10,6.10,6.10,0.000,0.000,0.25,0.8,0.6
74450,12:57:11.905,-6.48,-0.12,-46.06,56.12854121,9.95403803,4.22,0.28,ON,56.12851617,9.95402264,62.93,6.00,6.00,0.000,0.000,0.25,0.8,0.6
74549,12:57:12.004,-6.44,-0.07,-45.99,56.12854104,9.95403823,4.22,0.23,ON,56.12851617,9.95402264,62.93,5.95,5.95,0.000,0.000,0.25,0.8,0.5
74649,12:57:12.104,-6.12,0.05,-45.95,56.12854090,9.95403837,4.03,0.17,ON,56.12851581,9.95402306,62.76,5.85,5.85,0.000,0.000,0.10,0.8,0.5
74748,12:57:12.203,-5.55,0.13,-45.89,56.12854058,9.95403853,4.03,0.10,ON,56.12851581,9.95402306,62.76,5.80,5.80,0.000,0.000,0.25,0.8,0.4
74848,12:57:12.303,-4.75,0.23,-45.83,56.12854054,9.95403858,3.86,0.03,ON,56.12851563,9.95402347,62.58,5.76,5.76,0.000,0.000,0.10,0.8,0.4
74949,12:57:12.404,-3.76,0.13,-45.78,56.12854057,9.95403859,3.86,0.09,ON,56.12851563,9.95402347,62.58,5.70,5.70,0.000,0.000,0.10,0.7,0.3
75048,12:57:12.503,-2.31,-0.21,-45.77,56.12854067,9.95403850,3.69,0.17,ON,56.12851562,9.95402339,62.41,5.63,5.63,0.000,0.000,0.25,0.7,0.2
75148,12:57:12.603,-1.08,-0.37,-45.77,56.12854087,9.95403830,3.69,0.23,ON,56.12851562,9.95402339,62.41,5.44,5.44,0.000,0.000,0.25,0.7,0.2
75249,12:57:12.704,-0.06,-0.48,-45.80,56.12854108,9.95403832,3.47,0.28,ON,56.12851589,9.95402306,62.25,5.33,5.33,0.000,0.000,0.25,0.7,0.2
75348,12:57:12.803,0.91,-0.45,-45.82,56.12854122,9.95403804,3.47,0.31,ON,56.12851589,9.95402306,62.25,5.25,5.25,0.000,0.000,0.10,0.7,0.2
75452,12:57:12.907,1.89,-0.40,-45.86,56.12854138,9.95403773,3.34,0.33,ON,56.12851623,9.95402245,62.12,5.20,5.20,0.000,0.000,0.00,0.7,0.2
75549,12:57:13.004,2.53,-0.24,-45.86,56.12854157,9.95403736,3.34,0.34,ON,56.12851623,9.95402245,62.12,5.14,5.14,0.000,0.000,0.10,0.7,0.2
75649,12:57:13.104,2.97,0.05,-45.84,56.12854155,9.95403701,3.18,0.34,ON,56.12851663,9.95402166,62.02,5.02,5.02,0.000,0.000,0.10,0.7,0.2
75748,12:57:13.203,3.19,0.25,-45.82,56.12854170,9.95403662,3.18,0.33,ON,56.12851663,9.95402166,62.02,4.96,4.96,0.000,0.000,0.10,0.7,0.2
75849,12:57:13.304,3.44,0.27,-45.78,56.12854187,9.95403628,3.06,0.31,ON,56.12851712,9.95402077,61.93,4.90,4.90,0.000,0.000,0.25,0.7,0.2
75949,12:57:13.404,3.41,0.23,-45.76,56.12854210,9.95403598,3.06,0.29,ON,56.12851712,9.95402077,61.93,4.87,4.87,0.000,0.000,0.00,0.7,0.2
76048,12:57:13.503,3.35,0.20,-45.77,56.12854227,9.95403569,2.98,0.26,ON,56.12851753,9.95402004,61.85,4.80,4.80,0.000,0.000,0.25,0.7,0.2
76148,12:57:13.603,3.29,0.19,-45.77,56.12854241,9.95403538,2.98,0.22,ON,56.12851753,9.95402004,61.85,4.78,4.78,0.000,0.000,0.10,0.7,0.3
76248,12:57:13.703,3.07,0.20,-45.76,56.12854251,9.95403511,2.90,0.17,ON,56.12851785,9.95401943,61.76,4.75,4.75,0.000,0.000,0.10,0.8,0.3
76348,12:57:13.803,2.84,0.14,-45.78,56.12854260,9.95403485,2.90,0.12,ON,56.12851785,9.95401943,61.76,4.71,4.71,0.000,0.000,0.10,0.8,0.3
76450,12:57:13.905,2.46,0.05,-45.83,56.12854277,9.95403452,2.82,0.06,ON,56.12851813,9.95401907,61.69,4.68,4.68,0.000,0.000,0.25,0.8,0.3
76548,12:57:14.003,2.06,0.07,-45.87,56.12854284,9.95403452,2.82,0.02,ON,56.12851813,9.95401907,61.69,4.61,4.61,0.000,0.000,0.00,0.8,0.3
76649,12:57:14.104,1.49,0.33,-45.92,56.12854285,9.95403460,2.77,0.08,ON,56.12851823,9.95401906,61.62,4.57,4.57,0.000,0.000,0.25,0.8,0.3
76748,12:57:14.203,0.78,0.19,-45.93,56.12854278,9.95403479,2.77,0.14,ON,56.12851823,9.95401906,61.62,4.54,4.54,0.000,0.000,0.10,0.8,0.3
76848,12:57:14.303,-0.28,-0.30,-45.92,56.12854271,9.95403508,2.71,0.19,ON,56.12851819,9.95401945,61.53,4.50,4.50,0.000,0.000,0.10,0.8,0.4
76951,12:57:14.406,-1.25,-0.53,-45.91,56.12854278,9.95403577,2.71,0.22,ON,56.12851819,9.95401945,61.53,4.44,4.44,0.000,0.000,0.25,0.8,0.4
77049,12:57:14.504,-1.97,-0.29,-45.95,56.12854266,9.95403612,2.65,0.23,ON,56.12851795,9.95401996,61.45,4.41,4.41,0.000,0.000,0.10,0.8,0.4
77149,12:57:14.604,-2.63,-0.30,-45.97,56.12854244,9.95403637,2.65,0.23,ON,56.12851795,9.95401996,61.45,4.39,4.39,0.000,0.000,0.10,0.8,0.4
77249,12:57:14.704,-3.07,-0.36,-45.98,56.12854225,9.95403667,2.53,0.22,ON,56.12851764,9.95402053,61.34,4.36,4.36,0.000,0.000,0.10,0.8,0.4
77348,12:57:14.803,-3.31,-0.44,-45.96,56.12854205,9.95403737,2.53,0.20,ON,56.12851764,9.95402053,61.34,4.32,4.32,0.000,0.000,0.10,0.8,0.4
77449,12:57:14.904,-3.40,-0.52,-45.94,56.12854192,9.95403773,2.38,0.17,ON,56.12851743,9.95402120,61.19,4.22,4.22,0.000,0.000,0.10,0.8,0.4
77548,12:57:15.003,-3.25,-0.58,-45.90,56.12854176,9.95403797,2.38,0.15,ON,56.12851743,9.95402120,61.19,4.15,4.15,0.000,0.000,0.00,0.7,0.4
77649,12:57:15.104,-3.06,-0.47,-45.87,56.12854166,9.95403811,2.21,0.10,ON,56.12851714,9.95402164,61.01,4.08,4.08,0.000,0.000,0.10,0.7,0.4
77749,12:57:15.204,-2.59,-0.42,-45.82,56.12854161,9.95403788,2.21,0.06,ON,56.12851714,9.95402164,61.01,4.01,4.01,0.000,0.000,0.25,0.7,0.4
77849,12:57:15.304,-2.13,-0.34,-45.73,56.12854159,9.95403788,2.04,0.01,ON,56.12851695,9.95402184,60.83,3.96,3.96,0.000,0.000,0.25,0.7,0.4
77950,12:57:15.405,-1.66,-0.29,-45.67,56.12854158,9.95403794,2.04,0.03,ON,56.12851695,9.95402184,60.83,3.82,3.82,0.000,0.000,0.00,0.7,0.4
78049,12:57:15.504,-1.07,-0.22,-45.62,56.12854159,9.95403790,1.88,0.08,ON,56.12851695,9.95402172,60.67,3.75,3.75,0.000,0.000,0.25,0.7,0.3
78148,12:57:15.603,-0.54,-0.11,-45.60,56.12854156,9.95403774,1.88,0.11,ON,56.12851695,9.95402172,60.67,3.68,3.68,0.000,0.000,0.10,0.7,0.3
78249,12:57:15.704,-0.23,-0.03,-45.56,56.12854158,9.95403756,1.74,0.13,ON,56.12851708,9.95402147,60.53,3.59,3.59,0.000,0.000,0.00,0.7,0.3
78348,12:57:15.803,0.17,0.07,-45.54,56.12854158,9.95403738,1.74,0.15,ON,56.12851708,9.95402147,60.53,3.46,3.46,0.000,0.000,0.25,0.7,0.2
78451,12:57:15.906,0.62,0.02,-45.53,56.12854164,9.95403717,1.58,0.16,ON,56.12851728,9.95402101,60.39,3.40,3.40,0.000,0.000,0.10,0.7,0.2
78548,12:57:16.003,0.90,-0.04,-45.56,56.12854180,9.95403691,1.58,0.17,ON,56.12851728,9.95402101,60.39,3.35,3.35,0.000,0.000,0.00,0.7,0.2
78649,12:57:16.104,1.15,0.10,-45.59,56.12854195,9.95403649,1.44,0.17,ON,56.12851749,9.95402059,60.25,3.29,3.29,0.000,0.000,0.10,0.7,0.2
78748,12:57:16.203,1.46,-0.06,-45.65,56.12854206,9.95403624,1.44,0.16,ON,56.12851749,9.95402059,60.25,3.24,3.24,0.000,0.000,0.25,0.8,0.2
78848,12:57:16.303,1.55,-0.28,-45.71,56.12854216,9.95403605,1.34,0.14,ON,56.12851772,9.95402007,60.13,3.13,3.13,0.000,0.000,0.10,0.8,0.2
78949,12:57:16.404,1.54,-0.35,-45.78,56.12854226,9.95403593,1.34,0.11,ON,56.12851772,9.95402007,60.13,3.08,3.08,0.000,0.000,0.25,0.8,0.2
79048,12:57:16.503,1.35,-0.41,-45.82,56.12854244,9.95403578,1.30,0.07,ON,56.12851787,9.95401967,60.05,3.04,3.04,0.000,0.000,0.25,0.8,0.3
79148,12:57:16.603,1.05,-0.37,-45.86,56.12854252,9.95403565,1.30,0.05,ON,56.12851787,9.95401967,60.05,3.00,3.00,0.000,0.000,0.00,0.8,0.3
79249,12:57:16.704,0.67,-0.26,-45.87,56.12854257,9.95403558,1.28,0.02,ON,56.12851797,9.95401945,60.05,2.98,2.98,0.000,0.000,0.10,0.8,0.3
79349,12:57:16.804,0.38,-0.10,-45.86,56.12854259,9.95403557,1.28,0.02,ON,56.12851797,9.95401945,60.05,2.95,2.95,0.000,0.000,0.00,0.8,0.3
79450,12:57:16.905,0.11,0.07,-45.85,56.12854266,9.95403557,1.25,0.03,ON,56.12851789,9.95401931,60.04,2.92,2.92,0.000,0.000,0.00,0.8,0.3
79548,12:57:17.003,-0.17,0.19,-45.91,56.12854257,9.95403563,1.25,0.05,ON,56.12851789,9.95401931,60.04,2.92,2.92,0.000,0.000,0.10,0.8,0.3
79649,12:57:17.104,-0.47,0.32,-46.14,56.12854246,9.95403567,1.26,0.07,ON,56.12851771,9.95401932,60.05,2.92,2.92,0.000,0.000,0.10,0.8,0.3
79749,12:57:17.204,-0.73,0.34,-46.67,56.12854232,9.95403567,1.26,0.08,ON,56.12851771,9.95401932,60.05,2.93,2.93,0.000,0.000,0.25,0.8,0.3
79849,12:57:17.304,-1.00,0.35,-47.54,56.12854193,9.95403554,1.28,0.09,ON,56.12851753,9.95401944,60.06,2.93,2.93,0.000,0.000,0.10,0.8,0.3
79949,12:57:17.405,-1.20,0.38,-48.70,56.12854180,9.95403563,1.28,0.09,ON,56.12851753,9.95401944,60.06,2.94,2.94,0.000,0.000,0.25,0.8,0.3
80048,12:57:17.503,-1.38,0.41,-50.07,56.12854167,9.95403573,1.30,0.09,ON,56.12851732,9.95401953,60.06,2.95,2.95,0.000,0.000,0.10,0.8,0.3
80149,12:57:17.604,-1.54,0.42,-51.57,56.12854155,9.95403585,1.30,0.08,ON,56.12851732,9.95401953,60.06,2.95,2.95,0.000,0.000,0.10,0.7,0.3
80248,12:57:17.704,-1.61,0.39,-53.11,56.12854145,9.95403596,1.31,0.07,ON,56.12851715,9.95401968,60.07,2.98,2.98,0.000,0.000,0.25,0.7,0.2
80348,12:57:17.803,-1.66,0.40,-54.66,56.12854134,9.95403609,1.31,0.05,ON,56.12851715,9.95401968,60.07,3.00,3.00,0.000,0.000,0.10,0.7,0.2
80453,12:57:17.908,-1.66,0.42,-56.26,56.12854130,9.95403619,1.33,0.04,ON,56.12851707,9.95401978,60.07,3.00,3.00,0.000,0.000,0.25,0.7,0.2
80549,12:57:18.004,-1.51,0.44,-57.90,56.12854128,9.95403629,1.33,0.03,ON,56.12851707,9.95401978,60.07,3.01,3.01,0.000,0.000,0.10,0.7,0.2
80649,12:57:18.104,-1.35,0.39,-59.58,56.12854127,9.95403635,1.34,0.04,ON,56.12851701,9.95401970,60.08,3.00,3.00,0.000,0.000,0.00,0.7,0.2
80749,12:57:18.204,-1.13,0.39,-61.28,56.12854125,9.95403645,1.34,0.05,ON,56.12851701,9.95401970,60.08,2.98,2.98,0.000,0.000,0.10,0.7,0.2
80848,12:57:18.303,-0.92,0.36,-62.95,56.12854125,9.95403644,1.36,0.07,ON,56.12851702,9.95401954,60.08,2.98,2.98,0.000,0.000,0.25,0.7,0.2
80949,12:57:18.404,-0.67,0.33,-64.64,56.12854124,9.95403637,1.36,0.08,ON,56.12851702,9.95401954,60.08,2.99,2.99,0.000,0.000,-0.10,0.7,0.2
81049,12:57:18.504,-0.37,0.24,-66.35,56.12854125,9.95403629,1.37,0.10,ON,56.12851711,9.95401926,60.08,2.99,2.99,0.000,0.000,0.00,0.6,0.2
81149,12:57:18.604,-0.13,0.25,-68.03,56.12854115,9.95403614,1.37,0.11,ON,56.12851711,9.95401926,60.08,3.01,3.01,0.000,0.000,0.10,0.7,0.2
81249,12:57:18.704,0.19,0.23,-69.60,56.12854118,9.95403603,1.38,0.11,ON,56.12851723,9.95401898,60.09,3.01,3.01,0.000,0.000,0.00,0.7,0.2
81348,12:57:18.803,0.38,0.18,-71.02,56.12854123,9.95403590,1.38,0.11,ON,56.12851723,9.95401898,60.09,3.01,3.01,0.000,0.000,0.10,0.7,0.2
81450,12:57:18.905,0.43,0.17,-72.32,56.12854126,9.95403577,1.39,0.09,ON,56.12851736,9.95401867,60.08,3.00,3.00,0.000,0.000,0.25,0.7,0.2
81548,12:57:19.003,0.43,0.10,-73.50,56.12854125,9.95403554,1.39,0.08,ON,56.12851736,9.95401867,60.08,2.99,2.99,0.000,0.000,0.10,0.7,0.2
81648,12:57:19.104,0.40,0.08,-74.66,56.12854127,9.95403545,1.40,0.07,ON,56.12851747,9.95401836,60.08,2.97,2.97,0.000,0.000,0.10,0.7,0.2
81748,12:57:19.203,0.32,0.24,-75.79,56.12854129,9.95403539,1.40,0.05,ON,56.12851747,9.95401836,60.08,2.97,2.97,0.000,0.000,0.25,0.7,0.3
81848,12:57:19.303,0.21,0.45,-76.98,56.12854131,9.95403535,1.41,0.04,ON,56.12851755,9.95401815,60.07,2.96,2.96,0.000,0.000,0.00,0.8,0.3
81950,12:57:19.405,0.07,0.61,-78.17,56.12854132,9.95403533,1.41,0.04,ON,56.12851755,9.95401815,60.07,2.97,2.97,0.000,0.000,0.10,0.8,0.3
82048,12:57:19.504,0.07,0.68,-79.37,56.12854139,9.95403538,1.42,0.04,ON,56.12851762,9.95401792,60.06,2.95,2.95,0.000,0.000,0.00,0.8,0.3
82149,12:57:19.604,-0.00,0.68,-80.61,56.12854142,9.95403535,1.42,0.03,ON,56.12851762,9.95401792,60.06,2.95,2.95,0.000,0.000,0.00,0.8,0.3
82248,12:57:19.703,-0.08,0.69,-81.88,56.12854145,9.95403535,1.42,0.04,ON,56.12851767,9.95401775,60.05,2.94,2.94,0.000,0.000,0.10,0.8,0.3
82348,12:57:19.803,-0.19,0.63,-83.16,56.12854150,9.95403542,1.42,0.04,ON,56.12851767,9.95401775,60.05,2.94,2.94,0.000,0.000,0.25,0.8,0.3
82450,12:57:19.905,-0.23,0.49,-84.45,56.12854163,9.95403558,1.42,0.04,ON,56.12851772,9.95401759,60.03,2.93,2.93,0.000,0.000,0.00,0.8,0.3
82548,12:57:20.003,-0.28,0.39,-85.75,56.12854169,9.95403565,1.42,0.04,ON,56.12851772,9.95401759,60.03,2.92,2.92,0.000,0.000,0.00,0.8,0.3
82649,12:57:20.104,-0.31,0.31,-87.05,56.12854175,9.95403570,1.40,0.04,ON,56.12851773,9.95401746,60.00,2.92,2.92,0.000,0.000,0.10,0.8,0.3
82748,12:57:20.203,-0.30,0.28,-88.37,56.12854181,9.95403571,1.40,0.04,ON,56.12851773,9.95401746,60.00,2.91,2.91,0.000,0.000,0.10,0.8,0.2
82849,12:57:20.304,-0.23,0.25,-89.68,56.12854192,9.95403567,1.39,0.03,ON,56.12851778,9.95401729,59.98,2.90,2.90,0.000,0.000,0.10,0.8,0.2
82949,12:57:20.404,-0.13,0.31,-91.00,56.12854193,9.95403568,1.39,0.03,ON,56.12851778,9.95401729,59.98,2.90,2.90,0.000,0.000,0.10,0.8,0.2
83049,12:57:20.504,-0.08,0.41,-92.32,56.12854192,9.95403569,1.37,0.03,ON,56.12851779,9.95401715,59.96,2.88,2.88,0.000,0.000,0.00,0.8,0.2
83148,12:57:20.603,-0.11,0.42,-93.63,56.12854191,9.95403571,1.37,0.03,ON,56.12851779,9.95401715,59.96,2.87,2.87,0.000,0.000,0.10,0.8,0.2
83249,12:57:20.704,-0.04,0.38,-94.97,56.12854168,9.95403553,1.35,0.02,ON,56.12851784,9.95401704,59.94,2.86,2.86,0.000,0.000,0.00,0.8,0.2
83348,12:57:20.804,-0.05,0.27,-96.30,56.12854163,9.95403548,1.35,0.03,ON,56.12851784,9.95401704,59.94,2.86,2.86,0.000,0.000,0.25,0.8,0.2
83450,12:57:20.905,-0.05,0.18,-97.59,56.12854158,9.95403544,1.33,0.03,ON,56.12851787,9.95401688,59.94,2.85,2.85,0.000,0.000,0.25,0.8,0.2
83548,12:57:21.003,-0.01,0.07,-98.89,56.12854153,9.95403542,1.33,0.04,ON,56.12851787,9.95401688,59.94,2.84,2.84,0.000,0.000,0.25,0.8,0.2
83649,12:57:21.104,-0.02,-0.02,-100.22,56.12854151,9.95403538,1.33,0.04,ON,56.12851792,9.95401674,59.92,2.84,2.84,0.000,0.000,0.25,0.8,0.2
83748,12:57:21.203,0.12,-0.09,-101.49,56.12854148,9.95403523,1.33,0.04,ON,56.12851792,9.95401674,59.92,2.83,2.83,0.000,0.000,0.00,0.8,0.2
83849,12:57:21.304,0.27,-0.21,-102.76,56.12854151,9.95403516,1.31,0.04,ON,56.12851799,9.95401657,59.92,2.83,2.83,0.000,0.000,0.00,0.8,0.2
83953,12:57:21.408,0.30,-0.23,-104.00,56.12854157,9.95403513,1.31,0.03,ON,56.12851799,9.95401657,59.92,2.82,2.82,0.000,0.000,0.25,0.8,0.2
84054,12:57:21.509,0.29,-0.08,-105.23,56.12854162,9.95403511,1.31,0.02,ON,56.12851801,9.95401638,59.91,2.81,2.81,0.000,0.000,0.25,0.8,0.2
84153,12:57:21.608,0.29,0.06,-106.47,56.12854180,9.95403519,1.31,0.02,ON,56.12851801,9.95401638,59.91,2.81,2.81,0.000,0.000,0.10,0.8,0.3
84249,12:57:21.704,0.32,0.11,-107.75,56.12854182,9.95403518,1.30,0.02,ON,56.12851804,9.95401619,59.90,2.81,2.81,0.000,0.000,0.10,0.8,0.3
84353,12:57:21.808,0.28,0.03,-109.08,56.12854187,9.95403514,1.30,0.01,ON,56.12851804,9.95401619,59.90,2.81,2.81,0.000,0.000,0.00,0.8,0.3
84456,12:57:21.911,0.25,-0.02,-110.42,56.12854190,9.95403513,1.29,0.01,ON,56.12851804,9.95401605,59.90,2.81,2.81,0.000,0.000,0.10,0.8,0.3
84551,12:57:22.006,0.17,-0.07,-111.83,56.12854196,9.95403515,1.29,0.00,ON,56.12851804,9.95401605,59.90,2.81,2.81,0.000,0.000,0.10,0.8,0.3
84651,12:57:22.106,0.12,0.03,-113.32,56.12854194,9.95403517,1.28,0.02,ON,56.12851801,9.95401588,59.90,2.80,2.80,0.000,0.000,0.00,0.8,0.3
84751,12:57:22.206,0.19,0.27,-114.82,56.12854192,9.95403516,1.28,0.03,ON,56.12851801,9.95401588,59.90,2.80,2.80,0.000,0.000,0.10,0.8,0.3
84854,12:57:22.309,0.32,0.57,-116.30,56.12854187,9.95403513,1.27,0.04,ON,56.12851792,9.95401570,59.89,2.80,2.80,0.000,0.000,0.25,0.8,0.3
84953,12:57:22.408,0.38,0.81,-117.79,56.12854170,9.95403498,1.27,0.04,ON,56.12851792,9.95401570,59.89,2.80,2.80,0.000,0.000,0.25,0.8,0.3
85054,12:57:22.509,0.54,0.88,-119.24,56.12854164,9.95403494,1.27,0.04,ON,56.12851783,9.95401552,59.89,2.81,2.81,0.000,0.000,0.10,0.8,0.3
85150,12:57:22.606,0.67,0.80,-120.71,56.12854161,9.95403492,1.27,0.03,ON,56.12851783,9.95401552,59.89,2.80,2.80,0.000,0.000,0.00,0.8,0.3
85253,12:57:22.708,0.65,0.62,-122.23,56.12854158,9.95403490,1.27,0.02,ON,56.12851774,9.95401536,59.89,2.80,2.80,0.000,0.000,0.10,0.8,0.3
85351,12:57:22.806,0.68,0.53,-123.66,56.12854150,9.95403485,1.27,0.02,ON,56.12851774,9.95401536,59.89,2.80,2.80,0.000,0.000,0.10,0.8,0.3
85457,12:57:22.912,0.68,0.50,-125.00,56.12854142,9.95403476,1.27,0.02,ON,56.12851768,9.95401523,59.90,2.80,2.80,0.000,0.000,0.10,0.8,0.3
85550,12:57:23.005,0.65,0.47,-126.32,56.12854139,9.95403473,1.27,0.02,ON,56.12851768,9.95401523,59.90,2.81,2.81,0.000,0.000,0.10,0.8,0.3
85651,12:57:23.106,0.67,0.53,-127.60,56.12854137,9.95403473,1.28,0.02,ON,56.12851762,9.95401515,59.90,2.81,2.81,0.000,0.000,0.25,0.7,0.3
85753,12:57:23.208,0.65,0.62,-128.77,56.12854137,9.95403478,1.28,0.03,ON,56.12851762,9.95401515,59.90,2.82,2.82,0.000,0.000,0.00,0.7,0.3
85853,12:57:23.308,0.64,0.67,-129.81,56.12854143,9.95403481,1.28,0.02,ON,56.12851758,9.95401513,59.90,2.82,2.82,0.000,0.000,0.10,0.7,0.3
85953,12:57:23.408,0.50,0.65,-130.82,56.12854138,9.95403482,1.28,0.02,ON,56.12851758,9.95401513,59.90,2.82,2.82,0.000,0.000,0.10,0.7,0.3
86051,12:57:23.507,0.42,0.69,-131.84,56.12854137,9.95403484,1.29,0.02,ON,56.12851755,9.95401513,59.90,2.82,2.82,0.000,0.000,0.10,0.7,0.3
86150,12:57:23.605,0.42,0.62,-132.84,56.12854139,9.95403488,1.29,0.01,ON,56.12851755,9.95401513,59.90,2.82,2.82,0.000,0.000,0.10,0.7,0.3
86251,12:57:23.707,0.53,0.49,-133.88,56.12854145,9.95403493,1.29,0.01,ON,56.12851753,9.95401508,59.91,2.83,2.83,0.000,0.000,0.25,0.6,0.3
86350,12:57:23.805,0.54,0.33,-134.77,56.12854145,9.95403495,1.29,0.02,ON,56.12851753,9.95401508,59.91,2.83,2.83,0.000,0.000,0.00,0.6,0.3
86457,12:57:23.912,0.56,0.35,-135.10,56.12854149,9.95403499,1.29,0.02,ON,56.12851753,9.95401504,59.91,2.84,2.84,0.000,0.000,0.25,0.6,0.3
86550,12:57:24.005,0.61,0.31,-135.13,56.12854157,9.95403505,1.29,0.02,ON,56.12851753,9.95401504,59.91,2.83,2.83,0.000,0.000,0.25,0.6,0.3
86650,12:57:24.105,0.65,0.26,-135.09,56.12854181,9.95403518,1.29,0.02,ON,56.12851757,9.95401502,59.91,2.83,2.83,0.000,0.000,0.10,0.6,0.3
86749,12:57:24.204,0.64,0.19,-135.08,56.12854187,9.95403521,1.29,0.02,ON,56.12851757,9.95401502,59.91,2.83,2.83,0.000,0.000,0.10,0.6,0.3
86850,12:57:24.305,0.56,0.10,-135.06,56.12854191,9.95403523,1.30,0.01,ON,56.12851762,9.95401502,59.91,2.83,2.83,0.000,0.000,-0.10,0.6,0.3
86951,12:57:24.407,0.49,0.11,-135.06,56.12854192,9.95403525,1.30,0.01,ON,56.12851762,9.95401502,59.91,2.82,2.82,0.000,0.000,0.25,0.6,0.3
87054,12:57:24.509,0.46,0.15,-135.07,56.12854193,9.95403525,1.30,0.00,ON,56.12851765,9.95401499,59.91,2.81,2.81,0.000,0.000,0.10,0.6,0.3
87149,12:57:24.604,0.43,0.21,-135.07,56.12854184,9.95403519,1.30,0.00,ON,56.12851765,9.95401499,59.91,2.81,2.81,0.000,0.000,0.25,0.6,0.3
87251,12:57:24.706,0.52,0.29,-135.08,56.12854183,9.95403518,1.31,0.00,ON,56.12851778,9.95401496,59.94,2.82,2.82,0.000,0.000,0.25,0.7,0.3
87349,12:57:24.804,0.59,0.40,-135.12,56.12854185,9.95403517,1.31,0.00,ON,56.12851778,9.95401496,59.94,2.82,2.82,0.000,0.000,0.00,0.6,0.3
87453,12:57:24.908,0.63,0.39,-135.15,56.12854187,9.95403518,1.30,0.00,ON,56.12851781,9.95401491,59.94,2.82,2.82,0.000,0.000,0.10,0.6,0.3
87548,12:57:25.003,0.66,0.36,-135.18,56.12854189,9.95403526,1.30,0.01,ON,56.12851781,9.95401491,59.94,2.81,2.81,0.000,0.000,0.10,0.7,0.3
87649,12:57:25.104,0.51,0.29,-135.19,56.12854192,9.95403531,1.27,0.02,ON,56.12851785,9.95401491,59.89,2.79,2.79,0.000,0.000,0.10,0.7,0.3
87748,12:57:25.203,0.40,0.22,-135.19,56.12854199,9.95403534,1.27,0.03,ON,56.12851785,9.95401491,59.89,2.78,2.78,0.000,0.000,0.00,0.7,0.3
87850,12:57:25.305,0.33,0.04,-135.22,56.12854204,9.95403536,1.21,0.03,ON,56.12851788,9.95401480,59.84,2.77,2.77,0.000,0.000,0.10,0.7,0.3
87951,12:57:25.406,0.36,-0.04,-135.24,56.12854212,9.95403535,1.21,0.02,ON,56.12851788,9.95401480,59.84,2.74,2.74,0.000,0.000,0.25,0.7,0.3
88049,12:57:25.504,0.31,-0.20,-135.23,56.12854215,9.95403536,1.14,0.03,ON,56.12851791,9.95401482,59.75,2.71,2.71,0.000,0.000,0.10,0.7,0.3
88148,12:57:25.603,0.17,-0.29,-135.22,56.12854221,9.95403539,1.14,0.03,ON,56.12851791,9.95401482,59.75,2.65,2.65,0.000,0.000,0.25,0.8,0.3
88250,12:57:25.705,0.14,-0.29,-135.16,56.12854223,9.95403538,1.06,0.03,ON,56.12851801,9.95401476,59.66,2.62,2.62,0.000,0.000,0.00,0.8,0.3
88348,12:57:25.803,0.14,-0.29,-135.11,56.12854208,9.95403509,1.06,0.03,ON,56.12851801,9.95401476,59.66,2.58,2.58,0.000,0.000,0.10,0.8,0.3
88453,12:57:25.908,0.09,-0.19,-135.12,56.12854208,9.95403509,0.94,0.03,ON,56.12851800,9.95401483,59.56,2.55,2.55,0.000,0.000,0.10,0.8,0.3
88549,12:57:26.004,0.11,-0.04,-135.14,56.12854218,9.95403520,0.94,0.03,ON,56.12851800,9.95401483,59.56,2.47,2.47,0.000,0.000,0.10,0.8,0.3
88649,12:57:26.105,0.15,0.07,-135.16,56.12854224,9.95403527,0.84,0.02,ON,56.12851798,9.95401488,59.47,2.44,2.44,0.000,0.000,0.00,0.8,0.3
88748,12:57:26.203,0.16,0.06,-135.17,56.12854225,9.95403527,0.84,0.02,ON,56.12851798,9.95401488,59.47,2.39,2.39,0.000,0.000,0.00,0.8,0.3
88849,12:57:26.304,0.10,0.02,-135.14,56.12854239,9.95403532,0.72,0.02,ON,56.12851797,9.95401485,59.38,2.35,2.35,0.000,0.000,0.10,0.8,0.3
88950,12:57:26.406,0.09,-0.01,-135.10,56.12854238,9.95403535,0.72,0.01,ON,56.12851797,9.95401485,59.38,2.31,2.31,0.000,0.000,0.25,0.8,0.3
89049,12:57:26.504,0.14,0.01,-135.06,56.12854236,9.95403536,0.59,0.01,ON,56.12851793,9.95401501,59.25,2.24,2.24,0.000,0.000,0.00,0.8,0.4
89148,12:57:26.603,0.23,-0.10,-135.01,56.12854235,9.95403533,0.59,0.01,ON,56.12851793,9.95401501,59.25,2.21,2.21,0.000,0.000,0.00,0.9,0.4
89249,12:57:26.704,0.48,-0.36,-134.96,56.12854224,9.95403522,0.46,0.02,ON,56.12851797,9.95401488,59.12,2.16,2.16,0.000,0.000,0.10,0.9,0.5
89348,12:57:26.803,0.61,-0.48,-134.93,56.12854219,9.95403512,0.46,0.02,ON,56.12851797,9.95401488,59.12,2.11,2.11,0.000,0.000,0.25,0.9,0.6
89486,12:57:26.941,0.82,-0.46,-134.87,56.12854215,9.95403508,0.33,0.01,ON,56.12851793,9.95401481,59.01,2.01,2.01,0.669,0.000,0.00,1.0,0.6
89561,12:57:27.016,0.81,-0.50,-134.87,56.12854214,9.95403509,0.33,0.01,ON,56.12851793,9.95401481,59.01,1.97,1.97,0.613,0.000,0.10,1.1,0.6
89663,12:57:27.118,0.91,-0.65,-134.87,56.12854207,9.95403503,0.20,0.01,ON,56.12851798,9.95401475,58.89,1.92,1.92,0.536,0.544,0.10,1.1,0.6
89759,12:57:27.214,0.87,-0.70,-134.89,56.12854212,9.95403498,0.20,0.02,ON,56.12851798,9.95401475,58.89,1.88,1.88,0.487,0.535,0.25,1.2,0.6
89862,12:57:27.317,0.79,-0.71,-134.92,56.12854212,9.95403496,0.08,0.03,ON,56.12851795,9.95401469,58.78,1.82,1.82,0.430,0.537,0.10,1.3,0.6
89964,12:57:27.419,0.60,-0.60,-134.95,56.12854202,9.95403500,0.08,0.04,ON,56.12851795,9.95401469,58.78,1.72,1.72,0.373,0.586,0.25,1.4,0.6
90060,12:57:27.515,0.55,-0.22,-134.95,56.12854167,9.95403502,-0.04,0.05,ON,56.12851787,9.95401476,58.67,1.66,1.66,0.313,0.586,0.25,1.5,0.6
90161,12:57:27.616,0.70,-0.03,-134.95,56.12854151,9.95403508,-0.04,0.05,ON,56.12851787,9.95401476,58.67,1.62,1.62,0.288,0.603,0.10,1.6,0.7
90261,12:57:27.716,0.92,-0.13,-134.95,56.12854141,9.95403507,-0.17,0.05,ON,56.12851783,9.95401482,58.56,1.57,1.57,0.288,0.651,0.10,1.6,0.8
90348,12:57:27.803,0.97,-0.21,-134.97,56.12854140,9.95403496,-0.17,0.04,ON,56.12851783,9.95401482,58.56,1.52,1.52,0.000,0.000,0.00,1.7,0.8
90456,12:57:27.911,0.91,-0.26,-134.96,56.12854139,9.95403493,-0.23,0.05,ON,56.12851775,9.95401503,58.50,1.44,1.44,0.000,0.000,0.10,1.8,0.8
90548,12:57:28.003,0.86,-0.15,-134.97,56.12854149,9.95403515,-0.23,0.06,ON,56.12851775,9.95401503,58.50,1.42,1.42,0.000,0.000,0.00,1.8,0.8
90649,12:57:28.104,0.87,0.08,-134.96,56.12854143,9.95403525,-0.24,0.06,ON,56.12851771,9.95401505,58.51,1.41,1.41,0.000,0.000,0.00,1.8,0.7
90748,12:57:28.203,0.80,0.22,-134.96,56.12854136,9.95403528,-0.24,0.07,ON,56.12851771,9.95401505,58.51,1.40,1.40,0.000,0.000,0.25,1.8,0.7
90865,12:57:28.320,0.78,0.39,-134.93,56.12854128,9.95403533,-0.24,0.07,ON,56.12851763,9.95401517,58.52,1.40,1.40,0.288,0.818,0.25,1.8,0.7
90955,12:57:28.410,0.80,0.54,-134.95,56.12854125,9.95403530,-0.24,0.06,ON,56.12851763,9.95401517,58.52,1.40,1.40,0.288,0.813,0.10,1.8,0.8
91061,12:57:28.516,0.88,0.86,-134.94,56.12854119,9.95403536,-0.21,0.06,ON,56.12851755,9.95401527,58.54,1.41,1.41,0.288,0.811,0.25,1.8,0.8
91162,12:57:28.617,0.85,1.06,-134.95,56.12854115,9.95403541,-0.21,0.05,ON,56.12851755,9.95401527,58.54,1.41,1.41,0.288,0.808,0.10,1.8,0.7
91260,12:57:28.715,0.86,1.24,-134.96,56.12854113,9.95403543,-0.19,0.03,ON,56.12851748,9.95401529,58.56,1.41,1.41,0.288,0.803,0.25,1.8,0.7
91348,12:57:28.803,0.92,1.27,-134.97,56.12854115,9.95403541,-0.19,0.01,ON,56.12851748,9.95401529,58.56,1.43,1.43,0.000,0.000,0.25,1.8,0.6
91468,12:57:28.924,0.97,1.09,-134.98,56.12854111,9.95403538,-0.15,0.01,ON,56.12851744,9.95401526,58.58,1.43,1.43,0.288,0.786,0.10,1.7,0.6
91560,12:57:29.015,0.93,0.90,-135.00,56.12854107,9.95403534,-0.15,0.02,ON,56.12851744,9.95401526,58.58,1.45,1.45,0.288,0.768,0.10,1.7,0.5
91662,12:57:29.117,0.88,0.68,-135.05,56.12854105,9.95403531,-0.13,0.03,ON,56.12851746,9.95401521,58.58,1.62,1.62,0.288,0.598,0.25,1.7,0.4
91764,12:57:29.219,0.80,0.42,-135.10,56.12854097,9.95403528,-0.13,0.04,ON,56.12851746,9.95401521,58.58,1.56,1.56,0.288,0.658,0.00,1.6,0.3
91862,12:57:29.317,0.72,0.19,-135.20,56.12854099,9.95403525,-0.09,0.04,ON,56.12851750,9.95401507,58.58,1.66,1.66,0.288,0.553,0.10,1.5,0.3
91965,12:57:29.420,0.66,0.13,-135.28,56.12854103,9.95403521,-0.09,0.03,ON,56.12851750,9.95401507,58.58,1.60,1.60,0.288,0.623,0.10,1.5,0.2
92061,12:57:29.516,0.63,0.08,-135.33,56.12854107,9.95403517,-0.09,0.02,ON,56.12851766,9.95401500,58.59,1.48,1.48,0.288,0.738,0.25,1.4,0.2
92159,12:57:29.614,0.75,0.13,-135.39,56.12854119,9.95403507,-0.09,0.01,ON,56.12851766,9.95401500,58.59,1.48,1.48,0.288,0.738,0.10,1.3,0.2
92267,12:57:29.722,0.89,0.22,-135.44,56.12854123,9.95403507,-0.10,0.00,ON,56.12851772,9.95401490,58.57,1.47,1.47,0.288,0.753,0.10,1.2,0.1
92360,12:57:29.815,0.99,0.20,-135.48,56.12854128,9.95403510,-0.10,0.00,ON,56.12851772,9.95401490,58.57,1.46,1.46,0.288,0.758,0.10,1.0,0.1
92466,12:57:29.922,1.08,0.21,-135.48,56.12854135,9.95403512,-0.11,0.00,ON,56.12851773,9.95401485,58.56,1.44,1.44,0.288,0.775,0.10,0.9,0.1
92558,12:57:30.013,1.13,0.28,-135.46,56.12854144,9.95403514,-0.11,0.01,ON,56.12851773,9.95401485,58.56,1.44,1.44,0.288,0.778,0.25,0.9,0.1
92649,12:57:30.104,1.14,0.28,-135.44,56.12854168,9.95403518,-0.12,0.01,ON,56.12851775,9.95401478,58.54,1.43,1.43,0.000,0.000,0.10,0.8,0.1
92759,12:57:30.214,1.01,0.32,-135.44,56.12854169,9.95403518,-0.12,0.01,ON,56.12851775,9.95401478,58.54,1.42,1.42,0.288,0.793,0.10,0.6,0.0
92849,12:57:30.304,0.99,0.40,-135.44,56.12854170,9.95403520,-0.13,0.01,ON,56.12851776,9.95401479,58.53,1.42,1.42,0.000,0.000,0.00,0.6,0.1
92964,12:57:30.419,1.03,0.43,-135.42,56.12854174,9.95403524,-0.13,0.01,ON,56.12851776,9.95401479,58.53,1.42,1.42,0.295,0.805,0.25,0.5,0.1
93051,12:57:30.506,1.02,0.41,-135.40,56.12854175,9.95403523,-0.13,0.01,ON,56.12851776,9.95401478,58.53,1.41,1.41,0.288,0.806,0.10,0.4,0.1
93163,12:57:30.618,0.98,0.37,-135.32,56.12854181,9.95403521,-0.13,0.02,ON,56.12851776,9.95401478,58.53,1.41,1.41,0.288,0.808,0.00,0.4,0.1
93261,12:57:30.716,0.84,0.25,-135.25,56.12854187,9.95403523,-0.07,0.02,ON,56.12851778,9.95401469,58.59,1.43,1.43,0.300,0.800,0.00,0.4,0.1
93359,12:57:30.814,0.72,0.13,-135.19,56.12854193,9.95403528,-0.07,0.01,ON,56.12851778,9.95401469,58.59,1.45,1.45,0.338,0.813,0.10,0.4,0.1
93466,12:57:30.921,0.64,0.06,-135.17,56.12854194,9.95403524,0.04,0.01,ON,56.12851779,9.95401478,58.70,1.48,1.48,0.404,0.854,0.25,0.4,0.1
93548,12:57:31.003,0.65,0.03,-135.13,56.12854193,9.95403525,0.04,0.01,ON,56.12851779,9.95401478,58.70,1.51,1.51,0.000,0.000,0.25,0.5,0.2
93663,12:57:31.118,0.64,0.02,-135.12,56.12854192,9.95403525,0.16,0.01,ON,56.12851787,9.95401476,58.82,1.58,1.58,0.550,0.900,0.25,0.6,0.2
93761,12:57:31.216,0.58,0.03,-135.11,56.12854188,9.95403522,0.16,0.02,ON,56.12851787,9.95401476,58.82,1.63,1.63,0.626,0.921,0.25,0.6,0.3
93859,12:57:31.314,0.45,0.00,-135.09,56.12854171,9.95403520,0.31,0.03,ON,56.12851782,9.95401478,58.96,1.69,1.69,0.704,0.942,0.10,0.6,0.3
93959,12:57:31.414,0.52,0.00,-135.08,56.12854168,9.95403521,0.31,0.03,ON,56.12851782,9.95401478,58.96,1.75,1.75,0.796,0.973,0.10,0.7,0.4
94049,12:57:31.504,0.77,-0.01,-135.05,56.12854161,9.95403517,0.47,0.04,ON,56.12851787,9.95401477,59.12,1.82,1.82,0.000,0.000,0.10,0.8,0.4
94148,12:57:31.603,0.77,-0.05,-135.06,56.12854152,9.95403506,0.47,0.04,ON,56.12851787,9.95401477,59.12,1.94,1.94,0.000,0.000,0.10,0.8,0.4
94249,12:57:31.704,0.56,0.02,-135.04,56.12854147,9.95403500,0.60,0.04,ON,56.12851782,9.95401474,59.23,2.00,2.00,0.000,0.000,0.10,0.9,0.4
94348,12:57:31.803,-0.12,0.09,-135.03,56.12854151,9.95403493,0.60,0.05,ON,56.12851782,9.95401474,59.23,2.05,2.05,0.000,0.000,0.10,0.9,0.4
94454,12:57:31.909,-1.10,0.24,-135.02,56.12854149,9.95403494,0.69,0.07,ON,56.12851777,9.95401481,59.29,2.08,2.08,0.000,0.000,0.00,0.9,0.5
94548,12:57:32.003,-2.10,0.32,-135.02,56.12854141,9.95403496,0.69,0.10,ON,56.12851777,9.95401481,59.29,2.13,2.13,0.000,0.000,0.10,0.9,0.5
94649,12:57:32.104,-2.82,0.39,-135.06,56.12854132,9.95403489,0.72,0.15,ON,56.12851765,9.95401456,59.31,2.16,2.16,0.000,0.000,0.10,0.9,0.5
94748,12:57:32.203,-3.26,0.39,-135.09,56.12854122,9.95403474,0.72,0.22,ON,56.12851765,9.95401456,59.31,2.18,2.18,0.000,0.000,0.00,1.0,0.5
94849,12:57:32.304,-3.53,0.36,-135.10,56.12854108,9.95403450,0.75,0.29,ON,56.12851739,9.95401416,59.32,2.19,2.19,0.000,0.000,0.10,1.0,0.5
94950,12:57:32.405,-3.50,0.35,-135.12,56.12854090,9.95403424,0.75,0.37,ON,56.12851739,9.95401416,59.32,2.20,2.20,0.000,0.000,0.10,1.0,0.4
