Elapsed,Time,Pitch,Roll,Yaw,Latitude,Longitude,Altitude,Velocity,RTK Status,Latitude RTK,Longitude RTK,Altitude RTK,ALT:Altitude,ALT:Filtered Altitude,ECHO:Depth,ECHO:True Depth,ECHO:Temperature,ECHO:Pitch,ECHO:Roll
493083,12:35:04.662,3.07,1.56,-139.71,56.12780072,9.95486742,0.04,0.19,ON,56.12777990,9.95484236,58.69,0.06,0.06,0.000,0.000,11.98,0.1,-2.9
493177,12:35:04.756,1.81,0.34,-139.79,56.12780090,9.95486731,0.14,0.22,ON,56.12777990,9.95484236,58.69,0.06,0.06,0.000,0.000,11.98,0.1,-3.0
493273,12:35:04.852,0.57,-0.76,-139.80,56.12780107,9.95486718,0.14,0.21,ON,56.12778013,9.95484230,58.81,0.06,0.06,0.000,0.000,11.88,0.1,-3.0
493367,12:35:04.946,-0.13,-1.31,-139.78,56.12780120,9.95486706,0.25,0.20,ON,56.12778013,9.95484230,58.81,0.06,0.06,0.000,0.000,11.98,0.0,-3.0
493466,12:35:05.045,-0.64,-1.67,-139.73,56.12780133,9.95486689,0.25,0.16,ON,56.12778036,9.95484209,58.94,0.06,0.06,0.000,0.000,11.98,0.0,-3.0
493568,12:35:05.147,-0.65,-1.66,-139.68,56.12780149,9.95486661,0.33,0.13,ON,56.12778036,9.95484209,58.94,0.28,0.28,0.000,0.000,11.98,0.0,-3.0
493666,12:35:05.245,-0.35,-1.52,-139.66,56.12780155,9.95486643,0.33,0.11,ON,56.12778054,9.95484182,59.03,0.39,0.39,0.000,0.000,11.98,0.0,-3.0
493767,12:35:05.346,0.16,-1.50,-139.62,56.12780152,9.95486630,0.41,0.11,ON,56.12778054,9.95484182,59.03,0.37,0.37,0.000,0.000,11.98,0.0,-3.0
493867,12:35:05.446,0.64,-1.51,-139.56,56.12780146,9.95486614,0.41,0.12,ON,56.12778055,9.95484145,59.10,0.34,0.34,0.000,0.000,11.88,0.0,-3.0
493967,12:35:05.546,0.60,-1.43,-139.52,56.12780121,9.95486592,0.48,0.14,ON,56.12778055,9.95484145,59.10,0.36,0.36,0.000,0.000,11.88,0.0,-3.0
494068,12:35:05.647,0.30,-1.30,-139.52,56.12780108,9.95486570,0.48,0.16,ON,56.12778049,9.95484101,59.15,0.38,0.38,0.000,0.000,11.88,0.0,-3.0
494167,12:35:05.746,-0.08,-1.09,-139.51,56.12780096,9.95486557,0.51,0.19,ON,56.12778049,9.95484101,59.15,0.41,0.41,0.000,0.000,11.88,0.0,-3.0
494266,12:35:05.845,-0.50,-0.77,-139.54,56.12780082,9.95486539,0.51,0.22,ON,56.12778023,9.95484055,59.18,0.41,0.41,0.000,0.000,11.98,0.0,-3.0
494367,12:35:05.946,-0.94,-0.48,-139.61,56.12780065,9.95486516,0.52,0.27,ON,56.12778023,9.95484055,59.18,0.44,0.44,0.000,0.000,11.98,0.0,-3.0
494467,12:35:06.046,-1.38,-0.45,-139.65,56.12780045,9.95486485,0.52,0.31,ON,56.12777983,9.95483997,59.21,0.46,0.46,0.000,0.000,11.88,0.0,-3.0
494573,12:35:06.152,-1.64,-0.55,-139.69,56.12780026,9.95486448,0.55,0.37,ON,56.12777983,9.95483997,59.21,0.47,0.47,0.000,0.000,11.98,0.0,-3.0
494666,12:35:06.245,-1.67,-0.57,-139.77,56.12780002,9.95486407,0.55,0.43,ON,56.12777933,9.95483930,59.24,0.48,0.48,0.000,0.000,11.88,0.0,-3.0
494766,12:35:06.345,-1.44,-0.44,-139.80,56.12779973,9.95486339,0.59,0.49,ON,56.12777933,9.95483930,59.24,0.49,0.49,0.000,0.000,11.88,0.0,-3.0
494866,12:35:06.445,-0.94,-0.35,-139.82,56.12779937,9.95486283,0.59,0.54,ON,56.12777869,9.95483841,59.27,0.52,0.52,0.000,0.000,11.98,0.0,-3.0
494967,12:35:06.546,-0.51,-0.25,-139.85,56.12779898,9.95486221,0.63,0.58,ON,56.12777869,9.95483841,59.27,0.53,0.53,0.000,0.000,11.88,0.0,-3.0
495068,12:35:06.647,-0.14,-0.01,-139.85,56.12779857,9.95486161,0.63,0.61,ON,56.12777785,9.95483733,59.30,0.55,0.55,0.000,0.000,11.98,0.0,-3.0
495167,12:35:06.746,0.16,0.04,-139.88,56.12779811,9.95486101,0.68,0.63,ON,56.12777785,9.95483733,59.30,0.56,0.56,0.000,0.000,11.88,0.0,-3.0
495266,12:35:06.845,0.35,0.14,-139.95,56.12779770,9.95486037,0.68,0.65,ON,56.12777693,9.95483615,59.35,0.60,0.60,0.000,0.000,12.07,0.0,-3.0
495367,12:35:06.946,0.55,0.23,-140.04,56.12779718,9.95485971,0.72,0.67,ON,56.12777693,9.95483615,59.35,0.62,0.62,0.000,0.000,11.98,0.0,-3.0
495466,12:35:07.045,0.73,0.19,-140.12,56.12779668,9.95485905,0.72,0.68,ON,56.12777592,9.95483489,59.39,0.63,0.63,0.000,0.000,11.98,0.0,-3.0
495569,12:35:07.148,1.02,0.24,-140.15,56.12779615,9.95485833,0.77,0.68,ON,56.12777592,9.95483489,59.39,0.65,0.65,0.000,0.000,11.98,0.0,-3.0
495666,12:35:07.245,1.27,0.33,-140.13,56.12779556,9.95485753,0.77,0.69,ON,56.12777486,9.95483365,59.44,0.67,0.67,0.000,0.000,11.98,0.0,-3.0
495767,12:35:07.346,1.27,0.50,-140.09,56.12779503,9.95485678,0.82,0.70,ON,56.12777486,9.95483365,59.44,0.70,0.70,0.000,0.000,11.98,0.0,-3.0
495867,12:35:07.446,1.16,0.67,-140.02,56.12779453,9.95485610,0.82,0.70,ON,56.12777378,9.95483228,59.49,0.73,0.73,0.000,0.000,11.88,0.0,-3.0
495967,12:35:07.546,1.18,0.79,-139.96,56.12779400,9.95485548,0.88,0.71,ON,56.12777378,9.95483228,59.49,0.75,0.75,0.000,0.000,11.98,0.0,-3.0
496069,12:35:07.648,1.12,0.93,-139.91,56.12779349,9.95485501,0.88,0.72,ON,56.12777271,9.95483084,59.55,0.77,0.77,0.000,0.000,12.07,0.0,-3.0
496167,12:35:07.746,1.17,0.89,-139.87,56.12779297,9.95485431,0.94,0.73,ON,56.12777271,9.95483084,59.55,0.81,0.81,0.000,0.000,11.88,0.0,-3.0
496266,12:35:07.845,2.00,0.82,-139.86,56.12779247,9.95485360,0.94,0.73,ON,56.12777166,9.95482939,59.59,0.83,0.83,0.000,0.000,11.98,0.0,-3.0
496367,12:35:07.946,3.52,0.67,-139.87,56.12779193,9.95485276,1.00,0.72,ON,56.12777166,9.95482939,59.59,0.85,0.85,0.000,0.000,11.98,0.0,-3.0
496466,12:35:08.045,4.96,0.44,-139.83,56.12779142,9.95485182,1.00,0.68,ON,56.12777063,9.95482804,59.64,0.87,0.87,0.000,0.000,11.98,0.0,-3.0
496568,12:35:08.147,5.95,0.30,-139.80,56.12779097,9.95485109,1.06,0.62,ON,56.12777063,9.95482804,59.64,0.89,0.89,0.000,0.000,11.88,0.0,-3.0
496668,12:35:08.247,6.50,0.10,-139.79,56.12779059,9.95485046,1.06,0.54,ON,56.12776971,9.95482662,59.70,0.94,0.94,0.000,0.000,11.88,0.0,-3.0
496767,12:35:08.346,6.56,0.05,-139.75,56.12779022,9.95484989,1.11,0.46,ON,56.12776971,9.95482662,59.70,0.97,0.97,0.000,0.000,11.88,0.1,-3.0
496866,12:35:08.445,6.12,0.21,-139.71,56.12778992,9.95484948,1.11,0.38,ON,56.12776895,9.95482558,59.75,0.98,0.98,0.000,0.000,11.98,0.1,-2.9
496966,12:35:08.545,5.60,0.35,-139.66,56.12778959,9.95484942,1.18,0.31,ON,56.12776895,9.95482558,59.75,1.01,1.01,0.000,0.000,11.88,0.1,-2.9
497069,12:35:08.648,5.01,0.39,-139.64,56.12778940,9.95484919,1.18,0.25,ON,56.12776840,9.95482479,59.81,1.02,1.02,0.000,0.000,11.98,0.1,-2.9
497167,12:35:08.746,4.47,0.30,-139.63,56.12778928,9.95484888,1.25,0.20,ON,56.12776840,9.95482479,59.81,1.09,1.09,0.000,0.000,11.98,0.1,-2.9
497266,12:35:08.845,3.97,0.11,-139.63,56.12778918,9.95484863,1.25,0.16,ON,56.12776803,9.95482428,59.89,1.11,1.11,0.000,0.000,11.88,0.2,-2.9
497367,12:35:08.946,3.63,-0.04,-139.61,56.12778901,9.95484818,1.33,0.13,ON,56.12776803,9.95482428,59.89,1.13,1.13,0.000,0.000,11.88,0.2,-2.8
497466,12:35:09.045,3.47,-0.15,-139.59,56.12778891,9.95484801,1.33,0.11,ON,56.12776777,9.95482380,59.96,1.15,1.15,0.000,0.000,11.98,0.2,-2.8
497570,12:35:09.149,3.26,-0.15,-139.58,56.12778886,9.95484789,1.41,0.08,ON,56.12776777,9.95482380,59.96,1.24,1.24,0.000,0.000,11.98,0.2,-2.8
497666,12:35:09.245,2.81,-0.09,-139.58,56.12778880,9.95484782,1.41,0.06,ON,56.12776758,9.95482364,60.04,1.28,1.28,0.000,0.000,11.88,0.2,-2.8
497766,12:35:09.345,2.59,-0.06,-139.55,56.12778869,9.95484783,1.49,0.06,ON,56.12776758,9.95482364,60.04,1.30,1.30,0.000,0.000,11.76,0.2,-2.8
497866,12:35:09.445,2.56,0.05,-139.55,56.12778862,9.95484778,1.49,0.06,ON,56.12776750,9.95482350,60.12,1.33,1.33,0.000,0.000,11.88,0.3,-2.8
497967,12:35:09.546,2.43,0.23,-139.54,56.12778853,9.95484764,1.57,0.05,ON,56.12776750,9.95482350,60.12,1.37,1.37,0.000,0.000,11.88,0.3,-2.8
498069,12:35:09.648,2.22,0.39,-139.57,56.12778847,9.95484755,1.57,0.05,ON,56.12776739,9.95482338,60.19,1.46,1.46,0.000,0.000,11.88,0.3,-2.7
498167,12:35:09.746,2.17,0.46,-139.61,56.12778845,9.95484741,1.65,0.04,ON,56.12776739,9.95482338,60.19,1.49,1.49,0.000,0.000,11.88,0.3,-2.7
498266,12:35:09.845,2.18,0.45,-139.64,56.12778844,9.95484739,1.65,0.04,ON,56.12776736,9.95482343,60.27,1.51,1.51,0.000,0.000,11.98,0.3,-2.7
498367,12:35:09.946,2.11,0.46,-139.66,56.12778843,9.95484736,1.72,0.03,ON,56.12776736,9.95482343,60.27,1.50,1.50,0.000,0.000,11.88,0.3,-2.7
498466,12:35:10.045,2.02,0.45,-139.68,56.12778842,9.95484735,1.72,0.03,ON,56.12776732,9.95482344,60.34,1.53,1.53,0.000,0.000,11.88,0.3,-2.7
498570,12:35:10.149,2.02,0.41,-139.67,56.12778840,9.95484734,1.79,0.03,ON,56.12776732,9.95482344,60.34,1.58,1.58,0.000,0.000,11.88,0.3,-2.7
498667,12:35:10.246,1.94,0.44,-139.66,56.12778840,9.95484737,1.79,0.03,ON,56.12776723,9.95482347,60.42,1.60,1.60,0.000,0.000,11.88,0.3,-2.7
498767,12:35:10.346,1.80,0.52,-139.69,56.12778836,9.95484740,1.87,0.02,ON,56.12776723,9.95482347,60.42,1.63,1.63,0.000,0.000,11.88,0.4,-2.7
498866,12:35:10.445,1.75,0.38,-139.72,56.12778832,9.95484741,1.87,0.02,ON,56.12776718,9.95482349,60.50,1.66,1.66,0.000,0.000,11.88,0.4,-2.6
498967,12:35:10.546,1.47,0.34,-139.73,56.12778827,9.95484739,1.95,0.02,ON,56.12776718,9.95482349,60.50,1.69,1.69,0.000,0.000,11.98,0.3,-2.6
499069,12:35:10.648,0.36,0.36,-139.69,56.12778816,9.95484741,1.95,0.02,ON,56.12776718,9.95482353,60.56,1.78,1.78,0.000,0.000,11.98,0.6,-2.3
499166,12:35:10.745,0.13,0.44,-139.65,56.12778816,9.95484749,2.00,0.01,ON,56.12776718,9.95482353,60.56,1.80,1.80,0.000,0.000,11.98,0.9,-2.0
499266,12:35:10.845,0.41,0.44,-139.62,56.12778816,9.95484751,2.00,0.02,ON,56.12776712,9.95482355,60.62,1.83,1.83,0.000,0.000,11.88,0.9,-1.8
499367,12:35:10.946,0.77,0.55,-139.64,56.12778813,9.95484742,2.06,0.03,ON,56.12776712,9.95482355,60.62,1.86,1.86,0.000,0.000,11.98,1.0,-1.5
499467,12:35:11.046,1.18,0.50,-139.64,56.12778809,9.95484728,2.06,0.05,ON,56.12776710,9.95482337,60.68,1.89,1.89,0.000,0.000,11.88,1.2,-1.2
499573,12:35:11.152,1.55,0.43,-139.66,56.12778805,9.95484711,2.15,0.05,ON,56.12776710,9.95482337,60.68,1.91,1.91,0.000,0.000,11.88,1.3,-1.0
499666,12:35:11.245,1.82,0.33,-139.67,56.12778803,9.95484698,2.15,0.05,ON,56.12776704,9.95482323,60.76,1.94,1.94,0.000,0.000,11.98,1.4,-0.7
499767,12:35:11.346,1.93,0.05,-139.72,56.12778804,9.95484695,2.23,0.04,ON,56.12776704,9.95482323,60.76,1.98,1.98,0.000,0.000,11.98,1.6,-0.5
499866,12:35:11.445,2.02,-0.17,-139.74,56.12778808,9.95484670,2.23,0.02,ON,56.12776703,9.95482305,60.82,2.02,2.02,0.000,0.000,11.98,1.6,-0.2
499967,12:35:11.546,1.97,-0.17,-139.76,56.12778808,9.95484654,2.31,0.00,ON,56.12776703,9.95482305,60.82,2.09,2.09,0.000,0.000,11.88,1.8,0.0
500068,12:35:11.647,1.89,-0.10,-139.72,56.12778806,9.95484646,2.31,0.02,ON,56.12776698,9.95482294,60.92,2.13,2.13,0.000,0.000,11.88,1.9,0.3
500167,12:35:11.746,1.87,0.27,-139.69,56.12778800,9.95484653,2.42,0.04,ON,56.12776698,9.95482294,60.92,2.16,2.16,0.000,0.000,11.88,1.9,0.6
500266,12:35:11.845,1.93,0.66,-139.62,56.12778792,9.95484658,2.42,0.05,ON,56.12776691,9.95482298,61.02,2.19,2.19,0.000,0.000,11.88,2.1,0.8
500367,12:35:11.946,1.97,0.90,-139.50,56.12778768,9.95484665,2.54,0.05,ON,56.12776691,9.95482298,61.02,2.27,2.27,0.000,0.000,11.98,1.9,0.7
500466,12:35:12.045,2.08,0.93,-139.30,56.12778759,9.95484663,2.54,0.05,ON,56.12776678,9.95482300,61.15,2.31,2.31,0.000,0.000,11.88,1.7,0.6
500568,12:35:12.147,2.17,0.96,-138.92,56.12778753,9.95484658,2.69,0.05,ON,56.12776678,9.95482300,61.15,2.35,2.35,0.000,0.000,11.88,1.8,0.6
500666,12:35:12.245,2.25,0.98,-138.13,56.12778749,9.95484653,2.69,0.05,ON,56.12776666,9.95482307,61.30,2.42,2.42,0.000,0.000,11.98,1.7,0.6
500767,12:35:12.346,2.46,1.03,-136.87,56.12778758,9.95484647,2.83,0.05,ON,56.12776666,9.95482307,61.30,2.48,2.48,0.000,0.000,11.88,1.6,0.4
500866,12:35:12.445,2.67,1.09,-134.88,56.12778756,9.95484643,2.83,0.04,ON,56.12776658,9.95482302,61.44,2.60,2.60,0.000,0.000,11.88,1.6,0.4
500967,12:35:12.546,2.69,1.24,-132.28,56.12778755,9.95484637,2.98,0.03,ON,56.12776658,9.95482302,61.44,2.66,2.66,0.000,0.000,11.98,1.5,0.4
501068,12:35:12.647,2.36,1.46,-128.96,56.12778754,9.95484636,2.98,0.02,ON,56.12776653,9.95482325,61.59,2.72,2.72,0.000,0.000,11.76,1.4,0.4
501167,12:35:12.746,2.22,1.42,-125.19,56.12778754,9.95484651,3.14,0.02,ON,56.12776653,9.95482325,61.59,2.78,2.78,0.000,0.000,11.98,1.4,0.3
501267,12:35:12.846,2.26,1.23,-121.21,56.12778755,9.95484651,3.14,0.03,ON,56.12776664,9.95482350,61.74,2.91,2.91,0.000,0.000,11.98,1.3,0.3
501367,12:35:12.946,2.07,0.84,-117.04,56.12778754,9.95484637,3.30,0.04,ON,56.12776664,9.95482350,61.74,2.97,2.97,0.000,0.000,11.98,1.4,0.3
501466,12:35:13.045,1.87,0.67,-112.75,56.12778755,9.95484628,3.30,0.05,ON,56.12776678,9.95482388,61.88,3.03,3.03,0.000,0.000,11.98,1.3,0.3
501568,12:35:13.147,1.64,0.84,-108.42,56.12778747,9.95484621,3.45,0.06,ON,56.12776678,9.95482388,61.88,3.09,3.09,0.000,0.000,12.07,1.3,0.3
501666,12:35:13.245,1.22,1.28,-104.10,56.12778750,9.95484629,3.45,0.07,ON,56.12776688,9.95482432,62.02,3.14,3.14,0.000,0.000,11.88,1.4,0.2
501767,12:35:13.346,0.86,1.48,-99.73,56.12778758,9.95484646,3.59,0.08,ON,56.12776688,9.95482432,62.02,3.25,3.25,0.000,0.000,11.88,1.3,0.2
501866,12:35:13.445,0.36,1.58,-95.38,56.12778762,9.95484659,3.59,0.07,ON,56.12776699,9.95482499,62.13,3.30,3.30,0.000,0.000,11.88,1.4,0.2
501967,12:35:13.546,-0.28,1.51,-91.06,56.12778760,9.95484663,3.73,0.06,ON,56.12776699,9.95482499,62.13,3.34,3.34,0.000,0.000,11.88,1.4,0.2
502069,12:35:13.648,-0.80,1.51,-86.87,56.12778750,9.95484665,3.73,0.06,ON,56.12776714,9.95482543,62.27,3.37,3.37,0.000,0.000,11.66,1.4,0.2
502167,12:35:13.746,-1.51,1.41,-83.01,56.12778755,9.95484656,3.86,0.06,ON,56.12776714,9.95482543,62.27,3.42,3.42,0.000,0.000,11.88,1.4,0.2
502266,12:35:13.845,-2.51,1.13,-79.47,56.12778762,9.95484649,3.86,0.09,ON,56.12776723,9.95482577,62.40,3.51,3.51,0.000,0.000,11.88,1.4,0.2
502367,12:35:13.946,-3.36,0.90,-76.28,56.12778773,9.95484647,3.99,0.14,ON,56.12776723,9.95482577,62.40,3.58,3.58,0.000,0.000,11.88,1.5,0.2
502466,12:35:14.045,-4.00,0.83,-73.35,56.12778792,9.95484653,3.99,0.22,ON,56.12776742,9.95482579,62.53,3.65,3.65,0.000,0.000,11.98,1.5,0.2
502569,12:35:14.148,-4.60,0.78,-70.72,56.12778802,9.95484615,4.13,0.30,ON,56.12776742,9.95482579,62.53,3.72,3.72,0.000,0.000,11.98,1.5,0.2
502666,12:35:14.245,-4.91,0.79,-68.38,56.12778813,9.95484564,4.13,0.39,ON,56.12776757,9.95482526,62.66,3.86,3.86,0.000,0.000,11.88,1.5,0.2
502767,12:35:14.346,-5.12,0.85,-66.29,56.12778829,9.95484491,4.28,0.48,ON,56.12776757,9.95482526,62.66,3.92,3.92,0.000,0.000,11.88,1.5,0.2
502866,12:35:14.445,-5.14,0.81,-64.33,56.12778844,9.95484408,4.28,0.56,ON,56.12776783,9.95482415,62.80,3.97,3.97,0.000,0.000,11.88,1.5,0.3
502967,12:35:14.546,-4.96,0.76,-62.46,56.12778865,9.95484319,4.42,0.64,ON,56.12776783,9.95482415,62.80,4.02,4.02,0.000,0.000,11.88,1.5,0.3
503068,12:35:14.648,-4.71,0.81,-60.68,56.12778887,9.95484222,4.42,0.72,ON,56.12776812,9.95482265,62.93,4.07,4.07,0.000,0.000,11.88,1.5,0.2
503167,12:35:14.746,-4.58,0.67,-59.02,56.12778911,9.95484106,4.56,0.78,ON,56.12776812,9.95482265,62.93,4.17,4.17,0.000,0.000,11.98,1.5,0.2
503266,12:35:14.845,-4.52,0.37,-57.42,56.12778931,9.95483995,4.56,0.83,ON,56.12776848,9.95482066,63.05,4.23,4.23,0.000,0.000,11.88,1.5,0.2
503367,12:35:14.946,-4.52,0.56,-55.80,56.12778958,9.95483870,4.71,0.87,ON,56.12776848,9.95482066,63.05,4.30,4.30,0.000,0.000,11.88,1.5,0.2
503466,12:35:15.045,-4.55,0.98,-54.14,56.12778984,9.95483744,4.71,0.91,ON,56.12776894,9.95481843,63.20,4.37,4.37,0.000,0.000,11.88,1.5,0.2
503569,12:35:15.148,-4.50,1.16,-52.40,56.12779012,9.95483601,4.85,0.94,ON,56.12776894,9.95481843,63.20,4.42,4.42,0.000,0.000,11.88,1.6,0.2
503667,12:35:15.246,-4.41,1.26,-50.55,56.12779040,9.95483461,4.85,0.97,ON,56.12776945,9.95481594,63.33,4.53,4.53,0.000,0.000,11.88,1.5,0.2
503766,12:35:15.345,-4.23,1.24,-48.53,56.12779065,9.95483304,5.00,1.00,ON,56.12776945,9.95481594,63.33,4.58,4.58,0.000,0.000,11.88,1.6,0.2
503866,12:35:15.445,-3.94,1.14,-46.35,56.12779099,9.95483156,5.00,1.03,ON,56.12777006,9.95481330,63.46,4.64,4.64,0.000,0.000,11.88,1.6,0.2
503967,12:35:15.546,-3.55,1.05,-44.05,56.12779139,9.95482995,5.13,1.05,ON,56.12777006,9.95481330,63.46,4.69,4.69,0.000,0.000,11.98,1.6,0.2
504068,12:35:15.647,-3.22,1.13,-41.72,56.12779179,9.95482842,5.13,1.06,ON,56.12777072,9.95481069,63.58,4.80,4.80,0.000,0.000,11.88,1.6,0.2
504167,12:35:15.746,-2.89,1.46,-39.49,56.12779217,9.95482688,5.25,1.07,ON,56.12777072,9.95481069,63.58,4.85,4.85,0.000,0.000,11.88,1.6,0.2
504266,12:35:15.845,-2.65,1.79,-37.38,56.12779260,9.95482541,5.25,1.07,ON,56.12777140,9.95480798,63.68,4.88,4.88,0.000,0.000,11.98,1.6,0.2
504366,12:35:15.945,-2.62,1.98,-35.36,56.12779310,9.95482386,5.38,1.08,ON,56.12777140,9.95480798,63.68,4.93,4.93,0.000,0.000,11.98,1.6,0.2
504466,12:35:16.045,-2.71,2.31,-33.43,56.12779358,9.95482242,5.38,1.07,ON,56.12777217,9.95480526,63.78,4.98,4.98,0.000,0.000,11.88,1.6,0.2
504573,12:35:16.152,-3.09,2.36,-31.61,56.12779402,9.95482111,5.50,1.07,ON,56.12777217,9.95480526,63.78,5.10,5.10,0.000,0.000,11.88,1.6,0.2
504667,12:35:16.246,-3.50,2.29,-29.89,56.12779452,9.95481977,5.50,1.08,ON,56.12777308,9.95480263,63.88,5.13,5.13,0.000,0.000,11.88,1.6,0.2
504767,12:35:16.346,-3.74,2.36,-28.26,56.12779511,9.95481839,5.60,1.10,ON,56.12777308,9.95480263,63.88,5.17,5.17,0.000,0.000,11.88,1.6,0.2
504866,12:35:16.445,-3.86,2.46,-26.72,56.12779572,9.95481705,5.60,1.13,ON,56.12777415,9.95479999,63.98,5.21,5.21,0.000,0.000,11.88,1.6,0.2
504968,12:35:16.547,-4.05,2.32,-25.41,56.12779648,9.95481562,5.70,1.17,ON,56.12777415,9.95479999,63.98,5.31,5.31,0.000,0.000,11.88,1.6,0.2
505068,12:35:16.647,-4.29,1.83,-24.38,56.12779719,9.95481423,5.70,1.20,ON,56.12777538,9.95479741,64.07,5.35,5.35,0.000,0.000,11.88,1.6,0.2
505167,12:35:16.746,-4.41,1.18,-23.47,56.12779798,9.95481280,5.80,1.25,ON,56.12777538,9.95479741,64.07,5.37,5.37,0.000,0.000,11.98,1.6,0.2
505266,12:35:16.845,-4.30,0.87,-22.62,56.12779876,9.95481143,5.80,1.29,ON,56.12777681,9.95479478,64.17,5.41,5.41,0.000,0.000,11.88,1.6,0.2
505367,12:35:16.946,-4.08,0.70,-21.85,56.12779961,9.95480997,5.88,1.32,ON,56.12777681,9.95479478,64.17,5.44,5.44,0.000,0.000,11.88,1.6,0.2
505466,12:35:17.045,-3.81,0.54,-21.16,56.12780037,9.95480866,5.88,1.35,ON,56.12777832,9.95479198,64.24,5.54,5.54,0.000,0.000,11.88,1.6,0.2
505569,12:35:17.149,-3.75,0.89,-20.56,56.12780121,9.95480722,5.96,1.37,ON,56.12777832,9.95479198,64.24,5.59,5.59,0.000,0.000,11.88,1.6,0.2
505667,12:35:17.246,-3.90,1.14,-20.10,56.12780205,9.95480583,5.96,1.38,ON,56.12778000,9.95478917,64.29,5.65,5.65,0.000,0.000,11.88,1.6,0.2
505767,12:35:17.346,-4.18,1.23,-19.73,56.12780300,9.95480433,6.02,1.38,ON,56.12778000,9.95478917,64.29,5.68,5.68,0.000,0.000,11.88,1.6,0.2
505866,12:35:17.445,-4.39,1.25,-19.45,56.12780387,9.95480303,6.02,1.39,ON,56.12778175,9.95478639,64.36,5.71,5.71,0.000,0.000,11.88,1.6,0.2
505967,12:35:17.546,-4.54,0.98,-19.27,56.12780486,9.95480159,6.05,1.40,ON,56.12778175,9.95478639,64.36,5.75,5.75,0.000,0.000,11.88,1.6,0.2
506068,12:35:17.647,-4.41,0.62,-19.18,56.12780582,9.95480027,6.05,1.40,ON,56.12778358,9.95478372,64.38,5.79,5.79,0.000,0.000,11.88,1.6,0.2
506167,12:35:17.746,-4.15,0.28,-19.13,56.12780685,9.95479895,6.06,1.41,ON,56.12778358,9.95478372,64.38,5.81,5.81,0.000,0.000,11.88,1.6,0.2
506266,12:35:17.845,-4.07,0.15,-19.14,56.12780784,9.95479780,6.06,1.42,ON,56.12778548,9.95478113,64.39,5.82,5.82,0.000,0.000,11.88,1.6,0.2
506367,12:35:17.946,-4.07,0.35,-19.12,56.12780890,9.95479653,6.06,1.42,ON,56.12778548,9.95478113,64.39,5.82,5.82,0.000,0.000,11.88,1.6,0.2
506467,12:35:18.046,-3.95,0.81,-19.05,56.12780993,9.95479534,6.06,1.43,ON,56.12778750,9.95477868,64.38,5.82,5.82,0.000,0.000,11.88,1.6,0.2
506568,12:35:18.147,-4.05,0.97,-19.03,56.12781103,9.95479408,6.04,1.44,ON,56.12778750,9.95477868,64.38,5.82,5.82,0.000,0.000,11.88,1.5,0.2
506666,12:35:18.245,-4.05,0.84,-19.01,56.12781210,9.95479296,6.04,1.45,ON,56.12778958,9.95477636,64.36,5.83,5.83,0.000,0.000,11.88,1.5,0.2
506767,12:35:18.346,-3.88,0.69,-19.00,56.12781326,9.95479177,6.00,1.47,ON,56.12778958,9.95477636,64.36,5.84,5.84,0.000,0.000,11.88,1.5,0.2
506866,12:35:18.445,-3.65,0.98,-18.98,56.12781437,9.95479064,6.00,1.49,ON,56.12779171,9.95477410,64.33,5.81,5.81,0.000,0.000,11.88,1.6,0.2
506967,12:35:18.546,-3.41,1.33,-18.98,56.12781553,9.95478947,5.96,1.51,ON,56.12779171,9.95477410,64.33,5.83,5.83,0.000,0.000,11.76,1.6,0.2
507069,12:35:18.648,-3.14,1.45,-18.96,56.12781666,9.95478837,5.96,1.53,ON,56.12779396,9.95477187,64.31,5.85,5.85,0.000,0.000,11.88,1.5,0.2
507167,12:35:18.746,-2.98,1.88,-19.01,56.12781776,9.95478728,5.93,1.54,ON,56.12779396,9.95477187,64.31,5.81,5.81,0.000,0.000,11.88,1.6,0.2
507266,12:35:18.845,-2.84,2.08,-19.14,56.12781892,9.95478621,5.93,1.55,ON,56.12779632,9.95476972,64.29,5.79,5.79,0.000,0.000,11.88,1.6,0.2
507366,12:35:18.945,-2.86,1.92,-19.26,56.12782012,9.95478512,5.91,1.56,ON,56.12779632,9.95476972,64.29,5.77,5.77,0.000,0.000,11.88,1.6,0.2
507466,12:35:19.045,-2.83,1.61,-19.45,56.12782130,9.95478409,5.91,1.58,ON,56.12779874,9.95476760,64.29,5.71,5.71,0.000,0.000,11.98,1.5,0.2
507569,12:35:19.148,-3.09,1.58,-19.58,56.12782250,9.95478309,5.88,1.59,ON,56.12779874,9.95476760,64.29,5.71,5.71,0.000,0.000,11.88,1.5,0.2
507666,12:35:19.245,-3.36,1.49,-19.62,56.12782376,9.95478202,5.88,1.62,ON,56.12780127,9.95476544,64.29,5.72,5.72,0.000,0.000,11.88,1.5,0.2
507766,12:35:19.346,-3.74,1.50,-19.52,56.12782515,9.95478084,5.87,1.65,ON,56.12780127,9.95476544,64.29,5.73,5.73,0.000,0.000,11.88,1.5,0.2
507866,12:35:19.446,-3.93,2.02,-19.47,56.12782648,9.95477971,5.87,1.68,ON,56.12780385,9.95476321,64.28,5.75,5.75,0.000,0.000,11.88,1.5,0.2
507967,12:35:19.546,-4.08,2.31,-19.47,56.12782798,9.95477861,5.86,1.72,ON,56.12780385,9.95476321,64.28,5.76,5.76,0.000,0.000,11.88,1.5,0.2
508069,12:35:19.648,-4.26,2.39,-19.44,56.12782935,9.95477750,5.86,1.76,ON,56.12780657,9.95476091,64.28,5.76,5.76,0.000,0.000,11.88,1.5,0.2
508167,12:35:19.746,-4.50,1.95,-19.42,56.12783081,9.95477632,5.86,1.79,ON,56.12780657,9.95476091,64.28,5.77,5.77,0.000,0.000,11.88,1.5,0.2
508266,12:35:19.845,-4.62,1.60,-19.35,56.12783226,9.95477521,5.86,1.84,ON,56.12780942,9.95475857,64.29,5.75,5.75,0.000,0.000,11.88,1.5,0.2
508367,12:35:19.946,-4.66,1.27,-19.32,56.12783386,9.95477407,5.86,1.87,ON,56.12780942,9.95475857,64.29,5.75,5.75,0.000,0.000,11.88,1.5,0.2
508466,12:35:20.045,-4.56,0.97,-19.28,56.12783541,9.95477296,5.86,1.90,ON,56.12781238,9.95475627,64.30,5.74,5.74,0.000,0.000,11.76,1.5,0.2
508568,12:35:20.147,-4.43,0.83,-19.24,56.12783702,9.95477178,5.86,1.93,ON,56.12781238,9.95475627,64.30,5.73,5.73,0.000,0.000,11.88,1.5,0.2
508668,12:35:20.247,-4.14,0.69,-19.17,56.12783858,9.95477064,5.86,1.95,ON,56.12781550,9.95475387,64.29,5.76,5.76,0.000,0.000,11.88,1.5,0.2
508767,12:35:20.346,-3.85,0.64,-19.10,56.12784024,9.95476941,5.83,1.95,ON,56.12781550,9.95475387,64.29,5.76,5.76,0.000,0.000,11.88,1.5,0.2
508866,12:35:20.445,-3.80,0.71,-19.05,56.12784175,9.95476818,5.83,1.95,ON,56.12781869,9.95475157,64.30,5.77,5.77,0.000,0.000,11.88,1.5,0.2
508966,12:35:20.545,-3.97,0.76,-18.99,56.12784336,9.95476705,5.83,1.95,ON,56.12781869,9.95475157,64.30,5.79,5.79,0.000,0.000,11.88,1.5,0.2
509069,12:35:20.648,-4.26,0.84,-18.93,56.12784491,9.95476595,5.83,1.96,ON,56.12782193,9.95474934,64.32,5.81,5.81,0.000,0.000,11.76,1.6,0.2
509167,12:35:20.746,-4.37,0.75,-18.89,56.12784660,9.95476473,5.82,1.97,ON,56.12782193,9.95474934,64.32,5.88,5.88,0.000,0.000,11.88,1.6,0.2
509266,12:35:20.845,-4.49,0.59,-18.89,56.12784815,9.95476349,5.82,1.98,ON,56.12782525,9.95474713,64.33,5.91,5.91,0.000,0.000,11.88,1.6,0.2
509367,12:35:20.946,-4.49,0.34,-18.90,56.12784988,9.95476238,5.80,2.00,ON,56.12782525,9.95474713,64.33,5.92,5.92,0.000,0.000,11.88,1.6,0.1
509466,12:35:21.045,-4.34,-0.16,-18.92,56.12785155,9.95476132,5.80,2.02,ON,56.12782858,9.95474497,64.34,5.94,5.94,0.000,0.000,11.88,1.6,0.1
509573,12:35:21.152,-4.26,-0.37,-18.99,56.12785335,9.95476020,5.80,2.05,ON,56.12782858,9.95474497,64.34,5.98,5.98,0.000,0.000,11.88,1.6,0.1
509666,12:35:21.245,-3.96,-0.32,-19.07,56.12785514,9.95475910,5.80,2.08,ON,56.12783201,9.95474278,64.35,5.98,5.98,0.000,0.000,11.88,1.7,0.1
509767,12:35:21.346,-3.59,-0.37,-19.17,56.12785695,9.95475787,5.80,2.10,ON,56.12783201,9.95474278,64.35,6.00,6.00,0.000,0.000,11.88,1.6,0.1
509866,12:35:21.445,-3.43,-0.08,-19.21,56.12785869,9.95475666,5.80,2.12,ON,56.12783553,9.95474048,64.38,6.00,6.00,0.000,0.000,11.76,1.7,0.1
509967,12:35:21.546,-3.14,0.41,-19.25,56.12786053,9.95475535,5.81,2.14,ON,56.12783553,9.95474048,64.38,6.00,6.00,0.000,0.000,11.88,1.7,0.1
510069,12:35:21.650,-2.79,0.88,-19.29,56.12786223,9.95475400,5.81,2.15,ON,56.12783916,9.95473806,64.41,6.16,6.16,0.000,0.000,11.88,1.7,0.1
510167,12:35:21.746,-2.32,1.18,-19.33,56.12786406,9.95475263,5.82,2.16,ON,56.12783916,9.95473806,64.41,6.23,6.23,0.000,0.000,11.88,1.7,0.1
510266,12:35:21.845,-1.97,1.34,-19.37,56.12786584,9.95475131,5.82,2.17,ON,56.12784282,9.95473558,64.44,6.30,6.30,0.000,0.000,11.88,1.7,0.1
510367,12:35:21.946,-1.48,1.34,-19.36,56.12786778,9.95474991,5.83,2.16,ON,56.12784282,9.95473558,64.44,6.34,6.34,0.000,0.000,11.88,1.7,0.1
510467,12:35:22.046,-0.65,1.27,-19.35,56.12786958,9.95474862,5.83,2.15,ON,56.12784647,9.95473299,64.46,6.40,6.40,0.000,0.000,11.88,1.8,0.1
510569,12:35:22.149,2.90,1.47,-19.28,56.12787147,9.95474746,5.86,2.10,ON,56.12784647,9.95473299,64.46,6.54,6.54,0.000,0.000,11.88,1.8,0.1
510666,12:35:22.245,7.28,1.52,-19.24,56.12787311,9.95474631,5.86,1.97,ON,56.12784988,9.95473058,64.48,6.57,6.57,0.000,0.000,11.88,1.8,0.1
510767,12:35:22.346,11.03,1.44,-19.23,56.12787469,9.95474517,5.87,1.77,ON,56.12784988,9.95473058,64.48,6.62,6.62,0.000,0.000,11.88,1.8,0.1
510866,12:35:22.445,13.32,1.23,-19.27,56.12787601,9.95474421,5.87,1.51,ON,56.12785283,9.95472853,64.50,6.67,6.67,0.000,0.000,11.88,1.8,0.1
510967,12:35:22.546,14.02,1.32,-19.27,56.12787720,9.95474338,5.88,1.21,ON,56.12785283,9.95472853,64.50,6.68,6.68,0.000,0.000,11.88,1.7,0.1
511069,12:35:22.648,13.28,1.42,-19.16,56.12787808,9.95474272,5.88,0.91,ON,56.12785513,9.95472693,64.53,6.81,6.81,0.000,0.000,11.88,1.8,0.1
511167,12:35:22.746,11.04,1.13,-19.13,56.12787876,9.95474219,5.89,0.64,ON,56.12785513,9.95472693,64.53,6.81,6.81,0.000,0.000,11.76,1.8,0.1
511267,12:35:22.846,7.97,0.85,-19.17,56.12787923,9.95474185,5.89,0.43,ON,56.12785656,9.95472590,64.55,6.87,6.87,0.000,0.000,11.88,1.7,0.1
511367,12:35:22.946,5.28,0.84,-19.16,56.12787969,9.95474179,5.89,0.28,ON,56.12785656,9.95472590,64.55,6.87,6.87,0.000,0.000,11.88,1.7,0.1
511466,12:35:23.045,3.17,0.81,-19.17,56.12787994,9.95474165,5.89,0.20,ON,56.12785737,9.95472527,64.56,6.87,6.87,0.000,0.000,11.88,1.7,0.1
511579,12:35:23.158,1.88,0.86,-19.15,56.12788015,9.95474152,5.91,0.17,ON,56.12785737,9.95472527,64.56,6.87,6.87,0.000,0.000,11.76,1.6,0.1
511666,12:35:23.245,1.31,1.03,-19.15,56.12788033,9.95474140,5.91,0.16,ON,56.12785782,9.95472494,64.58,7.02,7.02,0.000,0.000,11.88,1.6,0.1
511767,12:35:23.346,1.24,1.11,-19.12,56.12788047,9.95474127,5.93,0.16,ON,56.12785782,9.95472494,64.58,7.05,7.05,0.000,0.000,11.88,1.5,0.1
511867,12:35:23.446,1.54,1.26,-19.10,56.12788064,9.95474117,5.93,0.17,ON,56.12785815,9.95472480,64.60,7.04,7.04,0.000,0.000,11.76,1.5,0.1
511966,12:35:23.545,1.98,1.19,-19.10,56.12788082,9.95474111,5.95,0.17,ON,56.12785815,9.95472480,64.60,6.97,6.97,0.000,0.000,11.76,1.5,0.1
512068,12:35:23.647,2.21,0.99,-19.17,56.12788099,9.95474109,5.95,0.15,ON,56.12785847,9.95472480,64.62,6.91,6.91,0.000,0.000,11.88,1.5,0.2
512167,12:35:23.746,2.09,0.31,-19.18,56.12788116,9.95474111,5.97,0.13,ON,56.12785847,9.95472480,64.62,6.88,6.88,0.000,0.000,11.88,1.4,0.2
512266,12:35:23.845,1.41,-0.45,-19.20,56.12788137,9.95474115,5.97,0.11,ON,56.12785873,9.95472485,64.64,6.90,6.90,0.000,0.000,11.88,1.4,0.2
512366,12:35:23.945,0.68,-0.98,-19.18,56.12788147,9.95474130,5.99,0.08,ON,56.12785873,9.95472485,64.64,7.04,7.04,0.000,0.000,11.88,1.4,0.2
512466,12:35:24.045,-0.15,-0.94,-19.22,56.12788152,9.95474144,5.99,0.07,ON,56.12785886,9.95472507,64.65,7.09,7.09,0.000,0.000,11.76,1.4,0.2
512569,12:35:24.148,-0.68,-0.40,-19.33,56.12788150,9.95474158,5.99,0.08,ON,56.12785886,9.95472507,64.65,7.10,7.10,0.000,0.000,11.88,1.3,0.2
512666,12:35:24.245,-1.24,-0.04,-19.47,56.12788146,9.95474180,5.99,0.11,ON,56.12785887,9.95472527,64.66,7.09,7.09,0.000,0.000,11.88,1.4,0.3
512767,12:35:24.346,-1.76,0.13,-19.55,56.12788139,9.95474188,5.99,0.14,ON,56.12785887,9.95472527,64.66,5.76,5.76,0.000,0.000,11.76,1.3,0.3
512867,12:35:24.446,-2.38,0.15,-19.59,56.12788130,9.95474195,5.99,0.17,ON,56.12785875,9.95472544,64.66,1.77,1.77,0.000,0.000,11.88,1.3,0.3
512967,12:35:24.546,-3.07,0.29,-19.63,56.12788119,9.95474203,6.00,0.18,ON,56.12785875,9.95472544,64.66,1.77,1.77,0.000,0.000,11.88,1.3,0.3
513069,12:35:24.648,-3.67,0.49,-19.64,56.12788112,9.95474214,6.00,0.19,ON,56.12785847,9.95472559,64.67,7.07,7.07,0.000,0.000,11.66,1.3,0.3
513167,12:35:24.746,-4.09,0.67,-19.70,56.12788097,9.95474225,6.02,0.19,ON,56.12785847,9.95472559,64.67,7.07,7.07,0.000,0.000,11.76,1.4,0.3
513266,12:35:24.845,-4.21,0.78,-19.75,56.12788084,9.95474234,6.02,0.17,ON,56.12785818,9.95472570,64.68,7.07,7.07,0.000,0.000,11.88,1.4,0.3
513367,12:35:24.946,-4.28,0.77,-19.81,56.12788077,9.95474241,6.02,0.15,ON,56.12785818,9.95472570,64.68,7.09,7.09,0.000,0.000,11.76,1.4,0.3
513466,12:35:25.045,-4.19,0.81,-19.79,56.12788078,9.95474247,6.02,0.13,ON,56.12785789,9.95472572,64.69,7.09,7.09,0.000,0.000,11.88,1.4,0.3
513568,12:35:25.147,-3.94,0.90,-19.76,56.12788072,9.95474246,6.03,0.11,ON,56.12785789,9.95472572,64.69,1.78,1.78,0.000,0.000,11.76,1.4,0.3
513667,12:35:25.246,-3.64,1.00,-19.70,56.12788067,9.95474243,6.03,0.08,ON,56.12785766,9.95472572,64.69,1.78,1.78,0.000,0.000,11.88,1.4,0.3
513767,12:35:25.346,-3.36,1.02,-19.61,56.12788061,9.95474240,6.03,0.06,ON,56.12785766,9.95472572,64.69,1.78,1.78,0.000,0.000,11.76,1.4,0.2
513866,12:35:25.445,-3.13,0.98,-19.54,56.12788058,9.95474235,6.03,0.03,ON,56.12785750,9.95472566,64.70,1.77,1.77,0.000,0.000,11.76,1.4,0.2
513966,12:35:25.546,-2.77,0.80,-19.51,56.12788056,9.95474215,6.02,0.02,ON,56.12785750,9.95472566,64.70,1.77,1.77,0.000,0.000,11.76,1.4,0.2
514068,12:35:25.647,-2.37,0.51,-19.51,56.12788061,9.95474205,6.02,0.05,ON,56.12785750,9.95472557,64.70,1.78,1.78,0.000,0.000,11.88,1.4,0.2
514167,12:35:25.746,-1.96,0.21,-19.48,56.12788067,9.95474192,6.03,0.08,ON,56.12785750,9.95472557,64.70,1.78,1.78,0.000,0.000,11.76,1.4,0.2
514266,12:35:25.845,-1.55,0.28,-19.42,56.12788074,9.95474179,6.03,0.11,ON,56.12785758,9.95472537,64.71,1.78,1.78,0.000,0.000,11.66,1.4,0.2
514367,12:35:25.946,-1.05,0.54,-19.38,56.12788068,9.95474164,6.05,0.13,ON,56.12785758,9.95472537,64.71,1.78,1.78,0.000,0.000,11.76,1.4,0.2
514467,12:35:26.046,-0.54,0.81,-19.35,56.12788076,9.95474151,6.05,0.15,ON,56.12785778,9.95472510,64.71,1.78,1.78,0.000,0.000,11.76,1.4,0.2
514572,12:35:26.152,-0.21,0.99,-19.31,56.12788089,9.95474133,6.06,0.16,ON,56.12785778,9.95472510,64.71,7.00,7.00,0.000,0.000,11.76,1.4,0.2
514666,12:35:26.245,0.19,1.00,-19.25,56.12788102,9.95474117,6.06,0.16,ON,56.12785807,9.95472480,64.72,7.04,7.04,0.000,0.000,11.66,1.4,0.2
514767,12:35:26.346,0.46,0.90,-19.21,56.12788117,9.95474096,6.07,0.15,ON,56.12785807,9.95472480,64.72,7.05,7.05,0.000,0.000,11.88,1.4,0.2
514867,12:35:26.446,0.52,0.81,-19.22,56.12788130,9.95474085,6.07,0.14,ON,56.12785835,9.95472453,64.72,7.04,7.04,0.000,0.000,11.76,1.4,0.2
514967,12:35:26.546,0.42,0.66,-19.23,56.12788143,9.95474077,6.07,0.12,ON,56.12785835,9.95472453,64.72,7.03,7.03,0.000,0.000,11.66,1.4,0.2
515069,12:35:26.648,0.20,0.48,-19.25,56.12788153,9.95474070,6.07,0.10,ON,56.12785867,9.95472435,64.72,7.04,7.04,0.000,0.000,11.76,1.4,0.2
515167,12:35:26.746,0.09,0.38,-19.25,56.12788158,9.95474049,6.08,0.08,ON,56.12785867,9.95472435,64.72,7.00,7.00,0.000,0.000,11.66,1.4,0.2
515266,12:35:26.845,0.08,0.51,-19.27,56.12788163,9.95474042,6.08,0.05,ON,56.12785886,9.95472421,64.72,7.00,7.00,0.000,0.000,11.76,1.4,0.2
515367,12:35:26.946,-0.13,0.62,-19.36,56.12788166,9.95474037,6.08,0.02,ON,56.12785886,9.95472421,64.72,7.00,7.00,0.000,0.000,11.76,1.4,0.2
515466,12:35:27.045,-0.46,0.48,-19.47,56.12788167,9.95474034,6.08,0.02,ON,56.12785895,9.95472414,64.71,1.80,1.80,0.000,0.000,11.76,1.4,0.2
515569,12:35:27.148,-0.85,0.42,-19.51,56.12788167,9.95474034,6.08,0.04,ON,56.12785895,9.95472414,64.71,1.80,1.80,0.000,0.000,11.66,1.4,0.2
515667,12:35:27.246,-1.21,0.53,-19.53,56.12788171,9.95474032,6.08,0.07,ON,56.12785897,9.95472412,64.71,1.80,1.80,0.000,0.000,11.88,1.4,0.2
515767,12:35:27.347,-1.59,0.58,-19.53,56.12788165,9.95474032,6.08,0.09,ON,56.12785897,9.95472412,64.71,1.80,1.80,0.000,0.000,11.76,1.4,0.2
515866,12:35:27.445,-1.95,0.69,-19.53,56.12788157,9.95474033,6.08,0.11,ON,56.12785885,9.95472415,64.71,1.80,1.80,0.000,0.000,11.76,1.4,0.2
515967,12:35:27.546,-2.24,0.77,-19.53,56.12788146,9.95474036,6.08,0.12,ON,56.12785885,9.95472415,64.71,1.80,1.80,0.000,0.000,11.66,1.4,0.2
516068,12:35:27.647,-2.56,0.83,-19.53,56.12788140,9.95474031,6.08,0.12,ON,56.12785868,9.95472424,64.71,1.80,1.80,0.000,0.000,11.66,1.4,0.2
516167,12:35:27.746,-2.90,0.87,-19.56,56.12788129,9.95474033,6.07,0.12,ON,56.12785868,9.95472424,64.71,1.80,1.80,0.000,0.000,11.76,1.4,0.2
516266,12:35:27.845,-3.07,0.74,-19.55,56.12788120,9.95474036,6.07,0.11,ON,56.12785847,9.95472431,64.70,1.80,1.80,0.000,0.000,11.76,1.3,0.2
516367,12:35:27.946,-3.04,0.73,-19.55,56.12788111,9.95474039,6.06,0.10,ON,56.12785847,9.95472431,64.70,7.00,7.00,0.000,0.000,11.66,1.4,0.2
516466,12:35:28.045,-2.99,0.71,-19.54,56.12788106,9.95474035,6.06,0.08,ON,56.12785827,9.95472439,64.69,7.00,7.00,0.000,0.000,11.76,1.4,0.2
516569,12:35:28.148,-2.90,0.66,-19.51,56.12788099,9.95474035,6.05,0.06,ON,56.12785827,9.95472439,64.69,7.00,7.00,0.000,0.000,11.66,1.4,0.2
516666,12:35:28.245,-2.86,0.53,-19.51,56.12788093,9.95474035,6.05,0.05,ON,56.12785814,9.95472448,64.68,7.00,7.00,0.000,0.000,11.76,1.3,0.2
516767,12:35:28.346,-2.78,0.35,-19.50,56.12788089,9.95474032,6.05,0.03,ON,56.12785814,9.95472448,64.68,7.00,7.00,0.000,0.000,11.66,1.3,0.1
516867,12:35:28.446,-2.56,0.36,-19.45,56.12788077,9.95474024,6.05,0.01,ON,56.12785806,9.95472450,64.68,7.01,7.01,0.000,0.000,11.66,1.3,0.1
516967,12:35:28.546,-2.34,0.36,-19.41,56.12788072,9.95474024,6.03,0.02,ON,56.12785806,9.95472450,64.68,7.01,7.01,0.000,0.000,11.76,1.3,0.1
517068,12:35:28.647,-2.07,0.45,-19.38,56.12788070,9.95474023,6.03,0.04,ON,56.12785807,9.95472452,64.68,7.01,7.01,0.000,0.000,11.66,1.3,0.1
517167,12:35:28.746,-1.79,0.43,-19.33,56.12788074,9.95474020,6.03,0.05,ON,56.12785807,9.95472452,64.68,7.02,7.02,0.000,0.000,11.76,1.3,0.1
517266,12:35:28.845,-1.52,0.48,-19.31,56.12788079,9.95474017,6.03,0.07,ON,56.12785814,9.95472456,64.69,7.02,7.02,0.000,0.000,11.66,1.3,0.1
517367,12:35:28.946,-1.36,0.52,-19.31,56.12788089,9.95474015,6.03,0.08,ON,56.12785814,9.95472456,64.69,7.01,7.01,0.000,0.000,11.66,1.4,0.2
517466,12:35:29.045,-1.12,0.40,-19.32,56.12788096,9.95474014,6.03,0.09,ON,56.12785829,9.95472456,64.69,7.00,7.00,0.000,0.000,11.66,1.4,0.2
517569,12:35:29.148,-0.90,0.06,-19.33,56.12788104,9.95474015,6.03,0.08,ON,56.12785829,9.95472456,64.69,6.96,6.96,0.000,0.000,11.66,1.4,0.2
517666,12:35:29.245,-0.86,-0.23,-19.32,56.12788113,9.95474015,6.03,0.08,ON,56.12785844,9.95472458,64.69,6.94,6.94,0.000,0.000,11.66,1.4,0.2
517767,12:35:29.346,-0.90,-0.24,-19.34,56.12788128,9.95474019,6.04,0.06,ON,56.12785844,9.95472458,64.69,6.93,6.93,0.000,0.000,11.76,1.4,0.2
517866,12:35:29.445,-1.01,-0.14,-19.29,56.12788137,9.95474017,6.04,0.05,ON,56.12785857,9.95472461,64.71,6.93,6.93,0.000,0.000,11.66,1.4,0.2
517967,12:35:29.546,-1.19,0.11,-19.30,56.12788145,9.95474013,6.05,0.04,ON,56.12785857,9.95472461,64.71,6.92,6.92,0.000,0.000,11.66,1.5,0.2
518068,12:35:29.647,-1.39,0.24,-19.30,56.12788151,9.95474007,6.05,0.04,ON,56.12785870,9.95472457,64.71,6.92,6.92,0.000,0.000,11.66,1.5,0.3
518167,12:35:29.746,-1.40,0.47,-19.25,56.12788156,9.95473991,6.06,0.03,ON,56.12785870,9.95472457,64.71,1.83,1.83,0.000,0.000,11.66,1.5,0.2
518266,12:35:29.845,-1.47,0.59,-19.26,56.12788156,9.95473982,6.06,0.03,ON,56.12785878,9.95472446,64.72,1.83,1.83,0.000,0.000,11.76,1.5,0.3
518367,12:35:29.946,-1.60,0.67,-19.28,56.12788153,9.95473976,6.06,0.02,ON,56.12785878,9.95472446,64.72,1.83,1.83,0.000,0.000,11.66,1.5,0.3
518466,12:35:30.045,-1.61,0.62,-19.28,56.12788152,9.95473971,6.06,0.02,ON,56.12785878,9.95472440,64.71,1.83,1.83,0.000,0.000,11.66,1.5,0.3
518569,12:35:30.148,-1.71,0.41,-19.25,56.12788157,9.95473969,6.07,0.02,ON,56.12785878,9.95472440,64.71,1.82,1.82,0.000,0.000,11.66,1.5,0.3
518666,12:35:30.245,-1.86,0.45,-19.22,56.12788157,9.95473963,6.07,0.03,ON,56.12785877,9.95472433,64.71,1.82,1.82,0.000,0.000,11.66,1.4,0.3
518766,12:35:30.345,-2.01,0.51,-19.15,56.12788152,9.95473954,6.06,0.03,ON,56.12785877,9.95472433,64.71,1.82,1.82,0.000,0.000,11.66,1.4,0.2
518867,12:35:30.446,-2.16,0.65,-19.10,56.12788149,9.95473946,6.06,0.03,ON,56.12785871,9.95472423,64.71,1.82,1.82,0.000,0.000,11.66,1.4,0.2
518967,12:35:30.546,-2.13,0.79,-19.12,56.12788149,9.95473942,6.06,0.02,ON,56.12785871,9.95472423,64.71,1.82,1.82,0.000,0.000,11.66,1.4,0.2
519068,12:35:30.647,-1.92,0.83,-19.21,56.12788149,9.95473932,6.06,0.02,ON,56.12785870,9.95472420,64.71,6.70,6.70,0.000,0.000,11.66,1.4,0.2
519167,12:35:30.746,-2.05,0.92,-19.31,56.12788144,9.95473925,6.06,0.01,ON,56.12785870,9.95472420,64.71,6.70,6.70,0.000,0.000,11.66,1.4,0.2
519267,12:35:30.846,-2.07,0.78,-19.43,56.12788141,9.95473918,6.06,0.01,ON,56.12785867,9.95472418,64.70,6.70,6.70,0.000,0.000,11.66,1.4,0.2
519367,12:35:30.946,-1.71,0.78,-19.46,56.12788142,9.95473913,6.05,0.02,ON,56.12785867,9.95472418,64.70,6.70,6.70,0.000,0.000,11.66,1.4,0.2
519466,12:35:31.045,-1.53,0.94,-19.48,56.12788140,9.95473905,6.05,0.03,ON,56.12785865,9.95472412,64.69,6.70,6.70,0.000,0.000,11.66,1.4,0.2
519572,12:35:31.151,-1.43,1.12,-19.52,56.12788140,9.95473898,6.04,0.04,ON,56.12785865,9.95472412,64.69,6.69,6.69,0.000,0.000,11.66,1.4,0.2
519666,12:35:31.245,-1.27,1.22,-19.55,56.12788141,9.95473891,6.04,0.05,ON,56.12785868,9.95472407,64.69,6.69,6.69,0.000,0.000,11.66,1.4,0.2
519767,12:35:31.346,-1.11,1.21,-19.52,56.12788145,9.95473884,6.04,0.05,ON,56.12785868,9.95472407,64.69,6.72,6.72,0.000,0.000,11.66,1.3,0.2
519866,12:35:31.445,-1.28,1.13,-19.41,56.12788149,9.95473879,6.04,0.06,ON,56.12785875,9.95472394,64.69,6.75,6.75,0.000,0.000,11.66,1.3,0.2
519967,12:35:31.546,-1.96,1.11,-19.26,56.12788154,9.95473874,6.03,0.07,ON,56.12785875,9.95472394,64.69,6.77,6.77,0.000,0.000,11.66,1.3,0.2
520067,12:35:31.646,-3.11,1.15,-19.15,56.12788161,9.95473869,6.03,0.09,ON,56.12785888,9.95472389,64.69,6.77,6.77,0.000,0.000,11.76,1.3,0.2
520167,12:35:31.746,-4.39,1.15,-19.12,56.12788170,9.95473866,6.03,0.14,ON,56.12785888,9.95472389,64.69,6.77,6.77,0.000,0.000,11.66,1.4,0.2
520266,12:35:31.845,-5.42,0.81,-19.17,56.12788189,9.95473867,6.03,0.21,ON,56.12785913,9.95472381,64.69,6.77,6.77,0.000,0.000,11.66,1.4,0.2
520367,12:35:31.946,-6.10,0.49,-19.26,56.12788215,9.95473862,6.03,0.30,ON,56.12785913,9.95472381,64.69,6.77,6.77,0.000,0.000,11.66,1.4,0.2
520466,12:35:32.045,-6.56,0.16,-19.34,56.12788246,9.95473851,6.03,0.39,ON,56.12785962,9.95472368,64.70,7.27,7.27,0.000,0.000,11.66,1.4,0.2
520568,12:35:32.147,-6.60,0.07,-19.40,56.12788286,9.95473833,6.04,0.49,ON,56.12785962,9.95472368,64.70,7.22,7.22,0.000,0.000,11.66,1.4,0.2
520667,12:35:32.246,-6.60,0.19,-19.39,56.12788332,9.95473811,6.04,0.58,ON,56.12786041,9.95472338,64.70,7.17,7.17,0.000,0.000,11.66,1.4,0.2
520767,12:35:32.346,-6.79,0.33,-19.42,56.12788394,9.95473790,6.04,0.66,ON,56.12786041,9.95472338,64.70,7.14,7.14,0.000,0.000,11.66,1.4,0.2
520867,12:35:32.446,-7.16,0.25,-19.44,56.12788454,9.95473760,6.04,0.73,ON,56.12786147,9.95472282,64.69,7.09,7.09,0.000,0.000,11.66,1.4,0.2
520967,12:35:32.546,-7.41,0.17,-19.44,56.12788521,9.95473720,6.03,0.81,ON,56.12786147,9.95472282,64.69,7.05,7.05,0.000,0.000,11.66,1.4,0.2
521068,12:35:32.647,-7.72,0.27,-19.45,56.12788590,9.95473678,6.03,0.88,ON,56.12786277,9.95472205,64.67,7.02,7.02,0.000,0.000,11.66,1.4,0.2
521167,12:35:32.746,-7.95,0.24,-19.48,56.12788670,9.95473623,5.99,0.94,ON,56.12786277,9.95472205,64.67,7.03,7.03,0.000,0.000,11.66,1.5,0.2
521266,12:35:32.845,-8.00,0.33,-19.47,56.12788751,9.95473569,5.99,1.02,ON,56.12786430,9.95472114,64.63,7.03,7.03,0.000,0.000,11.66,1.5,0.2
521367,12:35:32.946,-7.94,0.47,-19.42,56.12788843,9.95473509,5.92,1.08,ON,56.12786430,9.95472114,64.63,1.76,1.76,0.000,0.000,11.66,1.5,0.2
521467,12:35:33.046,-7.86,0.39,-19.31,56.12788934,9.95473448,5.92,1.15,ON,56.12786605,9.95471991,64.55,1.76,1.76,0.000,0.000,11.66,1.5,0.2
521568,12:35:33.147,-7.59,0.14,-19.21,56.12789023,9.95473377,5.83,1.22,ON,56.12786605,9.95471991,64.55,4.39,4.39,0.000,0.000,11.56,1.5,0.2
521667,12:35:33.246,-7.20,-0.32,-19.16,56.12789121,9.95473305,5.83,1.29,ON,56.12786798,9.95471854,64.47,7.03,7.03,0.000,0.000,11.66,1.5,0.2
521767,12:35:33.346,-6.58,-1.17,-19.18,56.12789233,9.95473228,5.75,1.35,ON,56.12786798,9.95471854,64.47,6.99,6.99,0.000,0.000,11.66,1.5,0.2
521866,12:35:33.445,-5.87,-2.17,-19.30,56.12789345,9.95473148,5.75,1.41,ON,56.12787013,9.95471699,64.39,7.00,7.00,0.000,0.000,11.66,1.5,0.1
521967,12:35:33.546,-5.11,-3.03,-19.49,56.12789487,9.95473070,5.64,1.46,ON,56.12787013,9.95471699,64.39,7.00,7.00,0.000,0.000,11.66,1.5,0.1
522068,12:35:33.647,-4.36,-3.65,-19.69,56.12789606,9.95472970,5.64,1.50,ON,56.12787239,9.95471501,64.31,6.98,6.98,0.000,0.000,11.66,1.5,0.1
522167,12:35:33.745,-3.60,-4.12,-19.99,56.12789728,9.95472847,5.54,1.54,ON,56.12787239,9.95471501,64.31,6.92,6.92,0.000,0.000,11.66,1.6,0.1
522266,12:35:33.845,-3.16,-4.43,-20.38,56.12789842,9.95472719,5.54,1.58,ON,56.12787468,9.95471258,64.22,6.89,6.89,0.000,0.000,11.66,1.6,0.1
522367,12:35:33.946,-2.67,-4.64,-21.02,56.12789955,9.95472574,5.46,1.61,ON,56.12787468,9.95471258,64.22,6.86,6.86,0.000,0.000,11.66,1.6,0.1
522466,12:35:34.045,-2.15,-4.63,-21.81,56.12790056,9.95472419,5.46,1.64,ON,56.12787695,9.95470967,64.15,6.82,6.82,0.000,0.000,11.66,1.6,0.1
522568,12:35:34.147,-1.90,-4.53,-22.60,56.12790167,9.95472240,5.38,1.68,ON,56.12787695,9.95470967,64.15,6.80,6.80,0.000,0.000,11.66,1.6,0.1
522666,12:35:34.245,-1.79,-4.52,-23.39,56.12790270,9.95472059,5.38,1.70,ON,56.12787913,9.95470619,64.07,6.78,6.78,0.000,0.000,11.66,1.6,0.1
522766,12:35:34.345,-1.76,-4.55,-24.19,56.12790376,9.95471856,5.31,1.74,ON,56.12787913,9.95470619,64.07,6.77,6.77,0.000,0.000,11.66,1.6,0.1
522867,12:35:34.446,-1.68,-4.21,-24.91,56.12790468,9.95471645,5.31,1.77,ON,56.12788131,9.95470215,63.99,6.75,6.75,0.000,0.000,11.66,1.6,0.1
522967,12:35:34.546,-1.64,-4.31,-25.67,56.12790568,9.95471422,5.24,1.81,ON,56.12788131,9.95470215,63.99,6.72,6.72,0.000,0.000,11.66,1.7,0.1
523069,12:35:34.648,-1.51,-4.59,-26.53,56.12790664,9.95471201,5.24,1.85,ON,56.12788339,9.95469777,63.94,6.63,6.63,0.000,0.000,11.66,1.7,0.1
523169,12:35:34.748,-1.20,-4.70,-27.49,56.12790769,9.95470959,5.17,1.89,ON,56.12788339,9.95469777,63.94,6.62,6.62,0.000,0.000,11.56,1.7,0.1
523266,12:35:34.845,-0.80,-4.46,-28.51,56.12790878,9.95470722,5.17,1.92,ON,56.12788543,9.95469282,63.87,6.61,6.61,0.000,0.000,11.66,1.7,0.2
523369,12:35:34.948,-0.63,-4.51,-29.64,56.12790982,9.95470450,5.10,1.95,ON,56.12788543,9.95469282,63.87,6.56,6.56,0.000,0.000,11.66,1.7,0.2
523466,12:35:35.045,-0.65,-4.44,-30.85,56.12791076,9.95470186,5.10,1.97,ON,56.12788731,9.95468750,63.81,6.54,6.54,0.000,0.000,11.66,1.6,0.2
523569,12:35:35.148,-0.66,-4.37,-32.14,56.12791165,9.95469907,5.05,1.99,ON,56.12788731,9.95468750,63.81,6.43,6.43,0.000,0.000,11.66,1.6,0.2
523666,12:35:35.245,-0.81,-4.44,-33.45,56.12791249,9.95469620,5.05,2.00,ON,56.12788913,9.95468187,63.75,6.39,6.39,0.000,0.000,11.66,1.6,0.2
523767,12:35:35.346,-0.96,-4.54,-34.82,56.12791326,9.95469316,4.98,2.02,ON,56.12788913,9.95468187,63.75,6.38,6.38,0.000,0.000,11.66,1.6,0.2
523866,12:35:35.445,-1.19,-4.63,-36.16,56.12791396,9.95469021,4.98,2.04,ON,56.12789074,9.95467592,63.69,6.36,6.36,0.000,0.000,11.66,1.6,0.2
523967,12:35:35.546,-1.46,-4.60,-37.40,56.12791470,9.95468707,4.91,2.06,ON,56.12789074,9.95467592,63.69,6.38,6.38,0.000,0.000,11.66,1.6,0.3
524068,12:35:35.647,-1.96,-4.45,-38.55,56.12791533,9.95468401,4.91,2.09,ON,56.12789212,9.95466956,63.62,6.36,6.36,0.000,0.000,11.66,1.6,0.3
524167,12:35:35.746,-2.22,-3.96,-39.57,56.12791598,9.95468087,4.85,2.12,ON,56.12789212,9.95466956,63.62,6.33,6.33,0.000,0.000,11.66,1.6,0.2
524266,12:35:35.845,-2.27,-2.88,-40.45,56.12791645,9.95467765,4.85,2.16,ON,56.12789318,9.95466290,63.55,6.31,6.31,0.000,0.000,11.56,1.6,0.3
524367,12:35:35.946,-2.13,-1.61,-41.12,56.12791690,9.95467414,4.77,2.18,ON,56.12789318,9.95466290,63.55,6.29,6.29,0.000,0.000,11.66,1.6,0.2
524467,12:35:36.046,-1.97,-0.55,-41.61,56.12791729,9.95467076,4.77,2.20,ON,56.12789407,9.95465605,63.47,6.27,6.27,0.000,0.000,11.66,1.6,0.2
524573,12:35:36.152,-1.71,0.37,-41.97,56.12791771,9.95466702,4.68,2.19,ON,56.12789407,9.95465605,63.47,6.25,6.25,0.000,0.000,11.66,1.6,0.2
524667,12:35:36.246,-1.37,1.19,-42.23,56.12791804,9.95466361,4.68,2.18,ON,56.12789477,9.95464901,63.35,6.25,6.25,0.000,0.000,11.66,1.6,0.2
524767,12:35:36.346,-0.95,1.44,-42.46,56.12791839,9.95466003,4.54,2.15,ON,56.12789477,9.95464901,63.35,6.22,6.22,0.000,0.000,11.66,1.6,0.2
524867,12:35:36.446,-0.80,1.46,-42.67,56.12791871,9.95465669,4.54,2.11,ON,56.12789538,9.95464215,63.20,6.18,6.18,0.000,0.000,11.66,1.6,0.1
524967,12:35:36.546,-0.61,1.39,-42.83,56.12791907,9.95465318,4.37,2.08,ON,56.12789538,9.95464215,63.20,6.10,6.10,0.000,0.000,11.66,1.6,0.1
525068,12:35:36.647,-0.42,1.45,-42.95,56.12791934,9.95464996,4.37,2.05,ON,56.12789591,9.95463543,63.04,6.06,6.06,0.000,0.000,11.66,1.6,0.1
525168,12:35:36.747,-0.34,1.56,-43.09,56.12791959,9.95464658,4.17,2.02,ON,56.12789591,9.95463543,63.04,6.01,6.01,0.000,0.000,11.56,1.6,0.0
525266,12:35:36.845,-0.27,1.50,-43.25,56.12791982,9.95464344,4.17,1.98,ON,56.12789621,9.95462882,62.83,5.95,5.95,0.000,0.000,11.66,1.6,0.0
525367,12:35:36.946,-0.27,1.25,-43.43,56.12791995,9.95464023,3.95,1.96,ON,56.12789621,9.95462882,62.83,5.81,5.81,0.000,0.000,11.66,1.5,0.0
525466,12:35:37.045,-0.21,1.17,-43.62,56.12792012,9.95463724,3.95,1.93,ON,56.12789656,9.95462240,62.62,5.71,5.71,0.000,0.000,11.56,1.5,0.0
525568,12:35:37.147,-0.00,1.42,-43.79,56.12792024,9.95463414,3.74,1.91,ON,56.12789656,9.95462240,62.62,5.64,5.64,0.000,0.000,11.66,1.5,-0.1
525666,12:35:37.245,0.21,1.73,-43.92,56.12792036,9.95463120,3.74,1.89,ON,56.12789696,9.95461622,62.41,5.54,5.54,0.000,0.000,11.66,1.5,-0.1
525767,12:35:37.347,1.69,3.02,-43.94,56.12792051,9.95462811,3.51,1.85,ON,56.12789696,9.95461622,62.41,5.44,5.44,0.000,0.000,11.66,1.5,-0.1
525867,12:35:37.446,4.27,5.34,-43.76,56.12792056,9.95462519,3.51,1.77,ON,56.12789732,9.95461034,62.20,5.27,5.27,0.000,0.000,11.56,1.5,0.0
525966,12:35:37.545,6.60,7.60,-43.40,56.12792069,9.95462236,3.28,1.62,ON,56.12789732,9.95461034,62.20,5.19,5.19,0.000,0.000,11.56,1.5,0.1
526068,12:35:37.647,8.19,9.36,-43.03,56.12792078,9.95461996,3.28,1.42,ON,56.12789779,9.95460526,62.00,5.10,5.10,0.000,0.000,11.66,1.5,0.1
526167,12:35:37.746,8.67,9.99,-42.81,56.12792080,9.95461783,3.05,1.18,ON,56.12789779,9.95460526,62.00,5.00,5.00,0.000,0.000,11.66,1.5,0.1
526267,12:35:37.845,8.23,9.85,-42.74,56.12792068,9.95461606,3.05,0.94,ON,56.12789810,9.95460123,61.78,4.91,4.91,0.000,0.000,11.66,1.5,0.1
526367,12:35:37.946,7.24,9.01,-42.85,56.12792067,9.95461474,2.80,0.71,ON,56.12789810,9.95460123,61.78,4.75,4.75,0.000,0.000,11.66,1.5,0.1
526466,12:35:38.045,6.02,7.86,-43.06,56.12792069,9.95461382,2.80,0.52,ON,56.12789826,9.95459855,61.54,4.70,4.70,0.000,0.000,11.56,1.5,0.2
526569,12:35:38.148,4.94,6.68,-43.28,56.12792084,9.95461320,2.52,0.37,ON,56.12789826,9.95459855,61.54,4.62,4.62,0.000,0.000,11.56,1.4,0.2
526666,12:35:38.245,4.19,5.63,-43.46,56.12792123,9.95461302,2.52,0.26,ON,56.12789871,9.95459696,61.33,4.51,4.51,0.000,0.000,11.56,1.4,0.2
526767,12:35:38.346,3.49,4.78,-43.67,56.12792134,9.95461271,2.23,0.18,ON,56.12789871,9.95459696,61.33,4.27,4.27,0.000,0.000,11.56,1.4,0.2
526866,12:35:38.445,2.89,4.06,-43.89,56.12792141,9.95461252,2.23,0.13,ON,56.12789889,9.95459624,61.05,4.12,4.12,0.000,0.000,11.56,1.4,0.2
526967,12:35:38.546,2.25,3.77,-44.05,56.12792143,9.95461237,1.97,0.09,ON,56.12789889,9.95459624,61.05,4.02,4.02,0.000,0.000,11.56,1.4,0.2
527068,12:35:38.647,1.51,3.75,-44.20,56.12792145,9.95461217,1.97,0.07,ON,56.12789898,9.95459578,60.80,3.91,3.91,0.000,0.000,11.56,1.4,0.2
527167,12:35:38.745,0.94,3.46,-44.26,56.12792139,9.95461202,1.74,0.07,ON,56.12789898,9.95459578,60.80,3.80,3.80,0.000,0.000,11.47,1.4,0.2
527266,12:35:38.845,0.40,3.16,-44.19,56.12792133,9.95461193,1.74,0.06,ON,56.12789889,9.95459568,60.53,3.63,3.63,0.000,0.000,11.56,1.3,0.2
527367,12:35:38.946,0.05,3.03,-44.19,56.12792132,9.95461194,1.53,0.05,ON,56.12789889,9.95459568,60.53,3.53,3.53,0.000,0.000,11.56,1.3,0.2
527466,12:35:39.045,-0.05,2.65,-44.15,56.12792132,9.95461194,1.53,0.05,ON,56.12789878,9.95459565,60.31,3.42,3.42,0.000,0.000,11.66,1.3,0.2
527569,12:35:39.148,-0.28,2.16,-44.06,56.12792146,9.95461169,1.36,0.06,ON,56.12789878,9.95459565,60.31,3.32,3.32,0.000,0.000,11.56,1.2,0.2
527667,12:35:39.246,-0.91,1.83,-43.89,56.12792142,9.95461169,1.36,0.07,ON,56.12789878,9.95459580,60.15,3.13,3.13,0.000,0.000,11.56,1.2,0.2
527767,12:35:39.346,-1.41,1.64,-43.70,56.12792128,9.95461184,1.23,0.09,ON,56.12789878,9.95459580,60.15,3.05,3.05,0.000,0.000,11.56,1.2,0.2
527866,12:35:39.445,-1.83,1.61,-43.49,56.12792114,9.95461200,1.23,0.10,ON,56.12789864,9.95459612,60.01,3.00,3.00,0.000,0.000,11.56,1.1,0.2
527967,12:35:39.546,-2.41,1.44,-43.37,56.12792085,9.95461232,1.16,0.11,ON,56.12789864,9.95459612,60.01,2.93,2.93,0.000,0.000,11.56,1.1,0.2
528068,12:35:39.647,-2.94,1.00,-43.22,56.12792079,9.95461249,1.16,0.12,ON,56.12789854,9.95459651,59.92,2.87,2.87,0.000,0.000,11.56,1.1,0.2
528167,12:35:39.746,-3.28,0.52,-43.11,56.12792081,9.95461266,1.08,0.12,ON,56.12789854,9.95459651,59.92,2.78,2.78,0.000,0.000,11.66,1.1,0.2
528266,12:35:39.845,-3.40,0.02,-43.03,56.12792084,9.95461282,1.08,0.12,ON,56.12789848,9.95459697,59.83,2.73,2.73,0.000,0.000,11.47,1.1,0.2
528367,12:35:39.946,-3.29,-0.40,-42.97,56.12792094,9.95461310,1.01,0.12,ON,56.12789848,9.95459697,59.83,2.69,2.69,0.000,0.000,11.47,1.1,0.2
528466,12:35:40.045,-3.18,-0.82,-42.99,56.12792095,9.95461328,1.01,0.11,ON,56.12789850,9.95459742,59.74,2.66,2.66,0.000,0.000,11.56,1.2,0.2
528569,12:35:40.148,-3.04,-1.04,-42.99,56.12792097,9.95461345,0.92,0.09,ON,56.12789850,9.95459742,59.74,2.62,2.62,0.000,0.000,11.56,1.2,0.2
528666,12:35:40.245,-2.95,-1.01,-43.03,56.12792100,9.95461359,0.92,0.07,ON,56.12789853,9.95459774,59.64,2.54,2.54,0.000,0.000,11.56,1.2,0.2
528767,12:35:40.346,-2.79,-0.94,-43.09,56.12792111,9.95461393,0.84,0.05,ON,56.12789853,9.95459774,59.64,2.51,2.51,0.000,0.000,11.56,1.2,0.2
528866,12:35:40.445,-2.62,-0.89,-43.19,56.12792116,9.95461399,0.84,0.02,ON,56.12789865,9.95459796,59.56,2.47,2.47,0.000,0.000,11.56,1.3,0.2
528967,12:35:40.546,-2.40,-0.62,-43.28,56.12792123,9.95461403,0.77,0.02,ON,56.12789865,9.95459796,59.56,2.44,2.44,0.000,0.000,11.47,1.3,0.2
529068,12:35:40.647,-2.22,-0.12,-43.45,56.12792126,9.95461397,0.77,0.06,ON,56.12789873,9.95459798,59.50,2.37,2.37,0.000,0.000,11.47,1.3,0.3
529167,12:35:40.746,-2.11,0.45,-43.59,56.12792119,9.95461377,0.69,0.10,ON,56.12789873,9.95459798,59.50,2.33,2.33,0.000,0.000,11.47,1.3,0.3
529266,12:35:40.845,-1.88,1.11,-43.73,56.12792112,9.95461360,0.69,0.13,ON,56.12789877,9.95459784,59.47,2.31,2.31,0.000,0.000,11.47,1.3,0.3
529367,12:35:40.947,-1.72,1.59,-43.86,56.12792117,9.95461340,0.67,0.15,ON,56.12789877,9.95459784,59.47,2.29,2.29,0.000,0.000,11.56,1.3,0.3
529466,12:35:41.045,-1.47,1.90,-44.00,56.12792122,9.95461317,0.67,0.18,ON,56.12789879,9.95459751,59.45,2.27,2.27,0.000,0.000,11.47,1.4,0.3
529572,12:35:41.151,-1.13,2.00,-44.07,56.12792128,9.95461288,0.67,0.19,ON,56.12789879,9.95459751,59.45,2.25,2.25,0.000,0.000,11.56,1.3,0.3
529666,12:35:41.245,-0.66,2.05,-44.11,56.12792145,9.95461273,0.67,0.21,ON,56.12789884,9.95459698,59.43,2.24,2.24,0.000,0.000,11.56,1.4,0.3
529767,12:35:41.346,-0.07,2.13,-44.10,56.12792141,9.95461245,0.64,0.22,ON,56.12789884,9.95459698,59.43,2.23,2.23,0.000,0.000,11.56,1.3,0.3
529866,12:35:41.445,0.52,2.45,-44.07,56.12792138,9.95461217,0.64,0.22,ON,56.12789885,9.95459635,59.38,2.22,2.22,0.000,0.000,11.47,1.3,0.3
529968,12:35:41.547,0.77,2.68,-44.02,56.12792139,9.95461183,0.61,0.20,ON,56.12789885,9.95459635,59.38,2.20,2.20,0.000,0.000,11.56,1.3,0.3
530068,12:35:41.647,0.64,2.89,-44.01,56.12792133,9.95461166,0.61,0.18,ON,56.12789882,9.95459573,59.36,2.18,2.18,0.000,0.000,11.56,1.3,0.3
530166,12:35:41.746,0.26,3.04,-43.98,56.12792134,9.95461141,0.60,0.16,ON,56.12789882,9.95459573,59.36,2.16,2.16,0.000,0.000,11.56,1.3,0.3
530266,12:35:41.845,-0.02,3.07,-43.96,56.12792134,9.95461119,0.60,0.14,ON,56.12789879,9.95459517,59.31,2.15,2.15,0.000,0.000,11.47,1.2,0.2
530367,12:35:41.946,-0.35,3.00,-43.92,56.12792131,9.95461098,0.57,0.11,ON,56.12789879,9.95459517,59.31,2.14,2.14,0.000,0.000,11.47,1.2,0.2
530466,12:35:42.045,-0.57,2.73,-43.85,56.12792132,9.95461081,0.57,0.09,ON,56.12789873,9.95459480,59.28,2.11,2.11,0.000,0.000,11.47,1.2,0.2
530568,12:35:42.147,-0.76,2.48,-43.79,56.12792130,9.95461069,0.54,0.07,ON,56.12789873,9.95459480,59.28,2.10,2.10,0.000,0.000,11.56,1.2,0.2
530666,12:35:42.245,-0.76,2.23,-43.73,56.12792130,9.95461060,0.54,0.05,ON,56.12789871,9.95459464,59.27,2.09,2.09,0.000,0.000,11.47,1.2,0.2
530768,12:35:42.347,-0.67,1.86,-43.62,56.12792133,9.95461056,0.52,0.03,ON,56.12789871,9.95459464,59.27,2.08,2.08,0.000,0.000,11.47,1.2,0.2
530867,12:35:42.446,-0.51,1.55,-43.47,56.12792137,9.95461055,0.52,0.01,ON,56.12789907,9.95459472,59.28,2.07,2.07,0.000,0.000,11.47,1.2,0.2
530966,12:35:42.545,-0.57,1.23,-43.32,56.12792149,9.95461060,0.49,0.03,ON,56.12789907,9.95459472,59.28,2.05,2.05,0.000,0.000,11.47,1.2,0.2
531068,12:35:42.647,-0.72,0.99,-43.19,56.12792152,9.95461069,0.49,0.06,ON,56.12789911,9.95459486,59.26,2.04,2.04,0.000,0.000,11.56,1.2,0.2
531167,12:35:42.746,-1.04,0.79,-43.09,56.12792154,9.95461088,0.49,0.08,ON,56.12789911,9.95459486,59.26,2.03,2.03,0.000,0.000,11.47,1.2,0.2
531266,12:35:42.845,-1.24,0.49,-43.02,56.12792157,9.95461108,0.49,0.09,ON,56.12789908,9.95459509,59.24,2.03,2.03,0.000,0.000,11.56,1.2,0.2
531367,12:35:42.946,-1.54,0.28,-42.99,56.12792165,9.95461149,0.48,0.10,ON,56.12789908,9.95459509,59.24,2.01,2.01,0.000,0.000,11.47,1.3,0.2
531468,12:35:43.047,-1.80,0.19,-43.04,56.12792168,9.95461169,0.48,0.10,ON,56.12789904,9.95459544,59.24,2.01,2.01,0.000,0.000,11.47,1.3,0.4
531569,12:35:43.148,-2.12,0.16,-43.12,56.12792167,9.95461186,0.47,0.09,ON,56.12789904,9.95459544,59.24,2.01,2.01,0.000,0.000,11.47,1.5,0.6
531666,12:35:43.245,-2.40,0.22,-43.19,56.12792166,9.95461202,0.47,0.08,ON,56.12789904,9.95459583,59.23,2.00,2.00,0.000,0.000,11.47,1.6,0.8
531766,12:35:43.346,-2.37,0.29,-43.27,56.12792157,9.95461217,0.46,0.06,ON,56.12789904,9.95459583,59.23,2.00,2.00,0.000,0.000,11.34,1.6,0.9
531866,12:35:43.445,-2.21,0.41,-43.40,56.12792156,9.95461227,0.46,0.03,ON,56.12789904,9.95459609,59.21,1.99,1.99,0.000,0.000,11.47,1.7,1.0
531967,12:35:43.546,-1.98,0.47,-43.51,56.12792157,9.95461235,0.44,0.02,ON,56.12789904,9.95459609,59.21,1.99,1.99,0.000,0.000,11.56,1.7,1.0
532068,12:35:43.647,-1.75,0.41,-43.64,56.12792157,9.95461238,0.44,0.03,ON,56.12789905,9.95459628,59.19,1.98,1.98,0.000,0.000,11.47,1.7,1.1
532167,12:35:43.746,-1.48,0.39,-43.76,56.12792145,9.95461245,0.42,0.05,ON,56.12789905,9.95459628,59.19,1.97,1.97,0.000,0.000,11.47,1.8,1.1
532266,12:35:43.845,-1.15,0.49,-43.84,56.12792144,9.95461240,0.42,0.07,ON,56.12789911,9.95459625,59.16,1.96,1.96,0.000,0.000,11.47,1.8,1.1
532367,12:35:43.946,-0.93,0.73,-43.88,56.12792148,9.95461231,0.41,0.09,ON,56.12789911,9.95459625,59.16,1.93,1.93,0.000,0.000,11.47,1.8,1.1
532466,12:35:44.045,-0.75,1.01,-43.87,56.12792149,9.95461220,0.41,0.10,ON,56.12789912,9.95459611,59.13,1.92,1.92,0.000,0.000,11.47,1.7,1.1
532568,12:35:44.147,-0.70,1.31,-43.86,56.12792147,9.95461209,0.41,0.10,ON,56.12789912,9.95459611,59.13,1.92,1.92,0.000,0.000,11.47,1.8,1.1
532666,12:35:44.245,-0.54,1.46,-43.92,56.12792153,9.95461210,0.41,0.10,ON,56.12789915,9.95459585,59.14,1.91,1.91,0.000,0.000,11.47,1.8,1.1
532767,12:35:44.346,-0.63,1.46,-43.95,56.12792152,9.95461202,0.41,0.10,ON,56.12789915,9.95459585,59.14,1.91,1.91,0.000,0.000,11.47,1.6,0.9
532866,12:35:44.445,-0.82,1.43,-43.93,56.12792151,9.95461196,0.41,0.10,ON,56.12789910,9.95459557,59.14,1.90,1.90,0.000,0.000,11.47,1.5,0.7
532967,12:35:44.546,-1.04,1.44,-43.87,56.12792146,9.95461191,0.40,0.10,ON,56.12789910,9.95459557,59.14,1.90,1.90,0.000,0.000,11.47,1.4,0.6
533068,12:35:44.647,-1.11,1.60,-43.84,56.12792144,9.95461200,0.40,0.10,ON,56.12789904,9.95459529,59.15,1.90,1.90,0.000,0.000,11.47,1.3,0.5
533167,12:35:44.746,-1.09,1.72,-43.84,56.12792135,9.95461184,0.39,0.10,ON,56.12789904,9.95459529,59.15,1.91,1.91,0.000,0.000,11.47,1.2,0.5
533266,12:35:44.845,-0.97,1.95,-43.83,56.12792128,9.95461168,0.39,0.10,ON,56.12789896,9.95459498,59.15,1.92,1.92,0.000,0.000,11.47,1.2,0.5
533367,12:35:44.946,-0.95,1.98,-43.78,56.12792121,9.95461152,0.40,0.09,ON,56.12789896,9.95459498,59.15,1.92,1.92,0.000,0.000,11.47,1.1,0.5
533466,12:35:45.045,-0.89,1.96,-43.75,56.12792106,9.95461125,0.40,0.07,ON,56.12789890,9.95459471,59.15,1.92,1.92,0.000,0.000,11.47,1.1,0.6
533568,12:35:45.147,-0.92,1.83,-43.68,56.12792103,9.95461117,0.41,0.05,ON,56.12789890,9.95459471,59.15,1.91,1.91,0.000,0.000,11.47,1.0,0.6
533666,12:35:45.245,-0.96,1.56,-43.64,56.12792102,9.95461111,0.41,0.04,ON,56.12789890,9.95459449,59.16,1.90,1.90,0.000,0.000,11.47,1.0,0.6
533769,12:35:45.348,-0.91,1.38,-43.59,56.12792102,9.95461104,0.42,0.03,ON,56.12789890,9.95459449,59.16,1.91,1.91,0.000,0.000,11.47,1.0,0.6
533866,12:35:45.445,-0.72,1.33,-43.55,56.12792114,9.95461103,0.42,0.03,ON,56.12789891,9.95459432,59.16,1.91,1.91,0.000,0.000,11.47,1.0,0.7
533967,12:35:45.546,-0.63,1.34,-43.53,56.12792119,9.95461103,0.42,0.02,ON,56.12789891,9.95459432,59.16,1.91,1.91,0.000,0.000,11.47,1.0,0.7
534068,12:35:45.647,-0.66,1.25,-43.56,56.12792124,9.95461103,0.42,0.03,ON,56.12789892,9.95459427,59.17,1.92,1.92,0.000,0.000,11.47,0.9,0.7
534167,12:35:45.746,-0.62,1.12,-43.57,56.12792129,9.95461100,0.43,0.03,ON,56.12789892,9.95459427,59.17,1.92,1.92,0.000,0.000,11.34,1.0,0.7
534266,12:35:45.845,-0.68,0.94,-43.60,56.12792133,9.95461099,0.43,0.03,ON,56.12789899,9.95459428,59.17,1.92,1.92,0.000,0.000,11.47,1.0,0.8
534367,12:35:45.946,-0.63,0.74,-43.62,56.12792138,9.95461091,0.44,0.03,ON,56.12789899,9.95459428,59.17,1.92,1.92,0.000,0.000,11.47,1.0,0.8
534466,12:35:46.045,-0.61,0.67,-43.63,56.12792140,9.95461093,0.44,0.02,ON,56.12789904,9.95459427,59.18,1.92,1.92,0.000,0.000,11.47,1.0,0.7
534572,12:35:46.151,-0.66,0.76,-43.66,56.12792143,9.95461093,0.44,0.02,ON,56.12789904,9.95459427,59.18,1.93,1.93,0.000,0.000,11.47,1.0,0.7
534666,12:35:46.245,-0.92,0.81,-43.63,56.12792145,9.95461094,0.44,0.03,ON,56.12789903,9.95459429,59.18,1.93,1.93,0.000,0.000,11.34,1.0,0.7
534767,12:35:46.346,-1.23,0.92,-43.58,56.12792152,9.95461092,0.45,0.03,ON,56.12789903,9.95459429,59.18,1.93,1.93,0.000,0.000,11.47,1.0,0.7
534866,12:35:46.445,-1.30,1.06,-43.63,56.12792150,9.95461093,0.45,0.03,ON,56.12789898,9.95459438,59.19,1.94,1.94,0.000,0.000,11.47,1.0,0.7
534967,12:35:46.546,-1.12,0.99,-43.66,56.12792146,9.95461092,0.45,0.03,ON,56.12789898,9.95459438,59.19,1.94,1.94,0.000,0.000,11.34,1.0,0.6
535069,12:35:46.648,-1.04,1.13,-43.65,56.12792143,9.95461091,0.45,0.03,ON,56.12789893,9.95459438,59.18,1.95,1.95,0.000,0.000,11.47,1.0,0.6
535166,12:35:46.745,-1.03,1.27,-43.65,56.12792144,9.95461086,0.45,0.03,ON,56.12789893,9.95459438,59.18,1.94,1.94,0.000,0.000,11.34,1.0,0.6
535266,12:35:46.845,-0.98,1.40,-43.63,56.12792144,9.95461083,0.45,0.03,ON,56.12789888,9.95459437,59.18,1.94,1.94,0.000,0.000,11.47,1.0,0.6
535367,12:35:46.946,-0.86,1.59,-43.58,56.12792145,9.95461081,0.46,0.02,ON,56.12789888,9.95459437,59.18,1.94,1.94,0.000,0.000,11.47,1.0,0.6
535466,12:35:47.045,-0.94,1.55,-43.56,56.12792146,9.95461080,0.46,0.01,ON,56.12789884,9.95459435,59.18,1.94,1.94,0.000,0.000,11.47,0.9,0.6
535568,12:35:47.147,-1.10,1.32,-43.55,56.12792151,9.95461079,0.45,0.01,ON,56.12789884,9.95459435,59.18,1.94,1.94,0.000,0.000,11.47,0.9,0.6
535666,12:35:47.245,-1.21,0.98,-43.59,56.12792153,9.95461080,0.45,0.01,ON,56.12789881,9.95459436,59.18,1.94,1.94,0.000,0.000,11.34,0.9,0.6
535767,12:35:47.346,-1.21,0.95,-43.61,56.12792156,9.95461080,0.45,0.01,ON,56.12789881,9.95459436,59.18,1.94,1.94,0.000,0.000,11.47,1.0,0.6
535866,12:35:47.445,-1.21,0.91,-43.66,56.12792159,9.95461078,0.45,0.01,ON,56.12789879,9.95459435,59.17,1.94,1.94,0.000,0.000,11.47,1.0,0.6
